{
   "* Domingo Santa Maria - Anibal Pinto": {
      "name": " Anibal Pinto",
      "latitude": -36.72617563,
      "longitude": -72.98360363,
      "services": "30m-30n-30q-30r-31d-32e-32h"
   },
   "12 De Octubre - 5 De Abril": {
      "name": " 5 De Abril",
      "latitude": -36.95808134,
      "longitude": -73.01724941,
      "services": "10a-11e-11f-11q-11r"
   },
   "12 De Octubre - Calle 1": {
      "name": " Calle 1",
      "latitude": -36.95244386,
      "longitude": -73.02293205,
      "services": "10o-10p-11e-11f-11q-11r-17o"
   },
   "12 De Octubre - Calle 2": {
      "name": " Calle 2",
      "latitude": -36.95673632,
      "longitude": -73.01874429,
      "services": "10a-11e-11f-11q-11r"
   },
   "12 De Octubre - Italia": {
      "name": " Italia",
      "latitude": -36.9544378,
      "longitude": -73.02089271,
      "services": "10a-10c-10p-17w-17x"
   },
   "12 De Octubre | Cancha De Futbol": {
      "name": "",
      "latitude": -36.95541794,
      "longitude": -73.02021596,
      "services": "10a-10o-11e-11f-11q-11r"
   },
   "21 De Mayo - Abraham Valenzuela": {
      "name": " Abraham Valenzuela",
      "latitude": -36.81248256,
      "longitude": -73.07028975,
      "services": "12a-12b-23a-30b-30d-30e-31f-32g-32y-40b-41c-41q-42u-43j-44e-52d-56v-60k-60l-62h-62o-65r-70f-70j-71z-81s"
   },
   "21 De Mayo - Argomedo | Oriente": {
      "name": " Argomedo | Oriente",
      "latitude": -36.81586606,
      "longitude": -73.06717804,
      "services": "12q-12r-23q-30m-30n-30q-30r-31d-32e-32h-40p-41r-42h-43t-44u-50u-52a-56o-57p-60x-60y-62m-62n-63k-65e-70g-70h-70i-71i-81c"
   },
   "21 De Mayo - Argomedo | Poniente": {
      "name": " Argomedo | Poniente",
      "latitude": -36.81564574,
      "longitude": -73.06748625,
      "services": "12a-12b-23a-30b-30d-30e-31f-32g-32y-40b-41c-41q-42u-43j-44e-52d-56v-60k-60l-62h-62o-65r-70f-70j-71z-81s"
   },
   "21 De Mayo - Cuarto Centenario | Norte": {
      "name": " Cuarto Centenario | Norte",
      "latitude": -36.80936649,
      "longitude": -73.07600623,
      "services": "12q-12r-23q-30m-30n-30q-30r-31d-32e-32h-40p-41r-42h-43t-44u-50u-52a-56o-57p-60x-60y-62m-62n-65d-65e-70g-70h-70i-71i-81c"
   },
   "21 De Mayo - Cuarto Centenario | Sur": {
      "name": " Cuarto Centenario | Sur",
      "latitude": -36.80953967,
      "longitude": -73.0761252,
      "services": "12a-12b-23a-30b-30d-30e-31f-32g-32y-40b-41c-41q-42u-43j-44e-52d-56v-60k-60l-62h-62o-65q-65r-70f-70j-71z-81s"
   },
   "21 De Mayo - Empalme Juan Pablo II": {
      "name": " Empalme Juan Pablo II",
      "latitude": -36.80714114,
      "longitude": -73.07829251,
      "services": "30q-50u"
   },
   "21 De Mayo - Gral Cruz": {
      "name": " Gral Cruz",
      "latitude": -36.82264661,
      "longitude": -73.06401408,
      "services": "12a-12b-23a-30b-30d-30e-31f-32g-32y-40b-41c-41q-42u-43j-44e-52d-56v-60k-60l-62h-62o-63p-65r-70f-70j-71z-81s"
   },
   "21 De Mayo - Magallanes": {
      "name": " Magallanes",
      "latitude": -36.81252033,
      "longitude": -73.06984041,
      "services": "12q-12r-23q-30m-30n-30q-30r-31d-32e-32h-40p-41r-42h-43t-44u-50u-52a-56o-57p-60x-60y-62m-62n-65e-70g-70h-70i-71i-81c"
   },
   "21 De Mayo - Miraflores": {
      "name": " Miraflores",
      "latitude": -36.81109475,
      "longitude": -73.07308213,
      "services": "12a-12b-23a-30b-30d-30e-31f-32g-32y-40b-41c-41q-42u-43j-44e-52d-56v-60k-60l-62h-62o-65q-65r-70f-70j-71z-81s"
   },
   "21 De Mayo - Pedro De Ona": {
      "name": " Pedro De Ona",
      "latitude": -36.80804151,
      "longitude": -73.07767592,
      "services": "12q-12r-23q-30m-30n-30q-30r-31d-32e-32h-40p-41r-42h-43t-44u-50u-52a-56o-57p-60x-60y-62m-62n-65d-65e-70g-70h-70i-71i-81c"
   },
   "30 De Octubre - Azucenas": {
      "name": " Azucenas",
      "latitude": -36.83452231,
      "longitude": -73.00224591,
      "services": "22d-22n-40p-71i"
   },
   "30 De Octubre - Los Tilos": {
      "name": " Los Tilos",
      "latitude": -36.83368075,
      "longitude": -73.00311997,
      "services": "22d-22n-40p-71i"
   },
   "4 Bombero Perret": {
      "name": "",
      "latitude": -36.97030452,
      "longitude": -72.9328222,
      "services": "18y"
   },
   "4 Esquinas": {
      "name": "",
      "latitude": -36.7685589,
      "longitude": -73.11399767,
      "services": "02a-02d-02k-02p-41q-41v-42h-42u"
   },
   "5 De Abril - Nvo Amanecer": {
      "name": " Nvo Amanecer",
      "latitude": -36.95776134,
      "longitude": -73.01589877,
      "services": "10a-11e-11f-11q-11r"
   },
   "Abdon Cifuentes - Abate Molina": {
      "name": " Abate Molina",
      "latitude": -36.79383566,
      "longitude": -73.04555329,
      "services": "43t-60l-60m-60x-60y-65q-65r"
   },
   "Abdon Cifuentes - Angel Cruchaga": {
      "name": " Angel Cruchaga",
      "latitude": -36.7957225,
      "longitude": -73.04574069,
      "services": "43j-60k-60l"
   },
   "Abdon Cifuentes - Benjamin Subercasseaux": {
      "name": " Benjamin Subercasseaux",
      "latitude": -36.78980967,
      "longitude": -73.04463581,
      "services": "43j-60k-60l-60z-65d-65e"
   },
   "Abdon Cifuentes - Canelo | Norte": {
      "name": " Canelo | Norte",
      "latitude": -36.78869272,
      "longitude": -73.041392,
      "services": "44e-65q-65r"
   },
   "Abdon Cifuentes - Canelo | Sur": {
      "name": " Canelo | Sur",
      "latitude": -36.7887065,
      "longitude": -73.04113391,
      "services": "44u-65d-65e"
   },
   "Abdon Cifuentes - Carlos Silva Vildosola": {
      "name": " Carlos Silva Vildosola",
      "latitude": -36.8000357,
      "longitude": -73.04878047,
      "services": "43t-60x-60y"
   },
   "Abdon Cifuentes - Gobernador Juan Henriquez": {
      "name": " Gobernador Juan Henriquez",
      "latitude": -36.79064411,
      "longitude": -73.04659815,
      "services": "60y"
   },
   "Abdon Cifuentes - Gongora Y Marmolejo | Norte": {
      "name": " Gongora Y Marmolejo | Norte",
      "latitude": -36.78899381,
      "longitude": -73.04325578,
      "services": "43t-60m-60x-65q-65r"
   },
   "Abdon Cifuentes - Gongora Y Marmolejo | Sur": {
      "name": " Gongora Y Marmolejo | Sur",
      "latitude": -36.78909125,
      "longitude": -73.04315244,
      "services": "43j-60k-60l-60z-65d-65e"
   },
   "Abdon Cifuentes - Hernan Del Solar": {
      "name": " Hernan Del Solar",
      "latitude": -36.79674484,
      "longitude": -73.04871828,
      "services": "43t-60x-60y"
   },
   "Abdon Cifuentes - J Gonzalez Vera": {
      "name": " J Gonzalez Vera",
      "latitude": -36.79575211,
      "longitude": -73.04589684,
      "services": "43t-60x-60y"
   },
   "Abdon Cifuentes - Jeronimo De Quiroga | Oriente": {
      "name": " Jeronimo De Quiroga | Oriente",
      "latitude": -36.79115377,
      "longitude": -73.04580074,
      "services": "43j-60k-60l-60y-60z-65d-65e"
   },
   "Abdon Cifuentes - Jeronimo De Quiroga | Poniente": {
      "name": " Jeronimo De Quiroga | Poniente",
      "latitude": -36.79115617,
      "longitude": -73.04594637,
      "services": "43t-60l-60m-60x-60y-65q-65r"
   },
   "Abdon Cifuentes - Jose Toribio Medina": {
      "name": " Jose Toribio Medina",
      "latitude": -36.79220807,
      "longitude": -73.04578516,
      "services": "43t-60l-60m-60x-60y-65q-65r"
   },
   "Abdon Cifuentes - Lingue | Oriente": {
      "name": " Lingue | Oriente",
      "latitude": -36.79109302,
      "longitude": -73.03773359,
      "services": "44e-65q-65r"
   },
   "Abdon Cifuentes - Lingue | Poniente": {
      "name": " Lingue | Poniente",
      "latitude": -36.7912028,
      "longitude": -73.03783165,
      "services": "44u-65d-65e"
   },
   "Abdon Cifuentes - Maqui": {
      "name": " Maqui",
      "latitude": -36.78901749,
      "longitude": -73.04250436,
      "services": "44u-65d-65e"
   },
   "Abdon Cifuentes - P Marino De La V": {
      "name": " P Marino De La V",
      "latitude": -36.79280802,
      "longitude": -73.04554578,
      "services": "43j-60k-60l-60y-60z-65d-65e"
   },
   "Abdon Cifuentes - Pehuen": {
      "name": " Pehuen",
      "latitude": -36.78905767,
      "longitude": -73.03837945,
      "services": "44e-65q-65r"
   },
   "Abdon Cifuentes - Roxane": {
      "name": " Roxane",
      "latitude": -36.79631146,
      "longitude": -73.04757492,
      "services": "43t-60x-60y"
   },
   "Abdon Cifuentes - Ruiz Aldea": {
      "name": " Ruiz Aldea",
      "latitude": -36.79640799,
      "longitude": -73.04741557,
      "services": "43j-60k-60l"
   },
   "Abdon Cifuentes - Sady Zañartu": {
      "name": " Sady Zañartu",
      "latitude": -36.79027083,
      "longitude": -73.04527406,
      "services": "43t-60m-60x-60y-65q-65r"
   },
   "Abdon Cifuentes - Ulmo": {
      "name": " Ulmo",
      "latitude": -36.78911413,
      "longitude": -73.03852369,
      "services": "44u-65d-65e"
   },
   "Acceso A Gran Bretana": {
      "name": "",
      "latitude": -36.77563831,
      "longitude": -73.11310712,
      "services": "12q-12r-30m-30n-41v"
   },
   "Acceso A Gran Bretaña": {
      "name": "",
      "latitude": -36.77563831,
      "longitude": -73.11310712,
      "services": "02d-02p-42f-42h-81c"
   },
   "Acceso A Rodriguez Aldea": {
      "name": "",
      "latitude": -36.8370828,
      "longitude": -73.13484369,
      "services": "20l-20v-22d-22n-23l-23q"
   },
   "Acceso A Vega Monumental | Oriente": {
      "name": "",
      "latitude": -36.81014644,
      "longitude": -73.08132237,
      "services": "23a"
   },
   "Acceso A Vega Monumental | Poniente": {
      "name": "",
      "latitude": -36.81031385,
      "longitude": -73.08164326,
      "services": "23q"
   },
   "Acceso Capilla Montahue": {
      "name": "",
      "latitude": -36.86529171,
      "longitude": -73.07144111,
      "services": "63i"
   },
   "Acceso Pedro De Valdivia Sur": {
      "name": "",
      "latitude": -36.87280256,
      "longitude": -73.06717992,
      "services": "63i"
   },
   "Acceso Poblacion Naval": {
      "name": "",
      "latitude": -36.70122509,
      "longitude": -73.12004367,
      "services": "10c-10d-10t"
   },
   "Addon Cifuentes - Sta Sabina": {
      "name": " Sta Sabina",
      "latitude": -36.8019663,
      "longitude": -73.04833919,
      "services": "43t-60x-60y"
   },
   "Ainavillo - Ventus": {
      "name": " Ventus",
      "latitude": -36.80407268,
      "longitude": -73.04872285,
      "services": "43t"
   },
   "Alberto Cobo - Costanera": {
      "name": " Costanera",
      "latitude": -36.83298364,
      "longitude": -73.00776888,
      "services": "90x-90y"
   },
   "Alborada": {
      "name": "",
      "latitude": -36.84647657,
      "longitude": -73.13094824,
      "services": "Linea 2"
   },
   "Alc Rene Mendoza - Lautaro": {
      "name": " Lautaro",
      "latitude": -36.71874657,
      "longitude": -72.98081979,
      "services": "62h"
   },
   "Alc Rene Mendoza - Los Alamos": {
      "name": " Los Alamos",
      "latitude": -36.71800778,
      "longitude": -72.97977554,
      "services": "62h"
   },
   "Alc Rene Mendoza - Pedro De Valdivia": {
      "name": " Pedro De Valdivia",
      "latitude": -36.71969427,
      "longitude": -72.98195936,
      "services": "62h"
   },
   "Alemania": {
      "name": "",
      "latitude": -36.77965648,
      "longitude": -73.10562451,
      "services": "43t"
   },
   "Alemania - Belgica | Oriente": {
      "name": " Belgica | Oriente",
      "latitude": -36.78145415,
      "longitude": -73.10417959,
      "services": "02d-12q-30m-30n-40p-41r-42f-42h-43t-60x-71i-81c"
   },
   "Alemania - Belgica | Poniente": {
      "name": " Belgica | Poniente",
      "latitude": -36.78152855,
      "longitude": -73.10432343,
      "services": "02k-12a-30d-30e-40b-40g-41c-41q-42u-42w-43j-60l-71z-81s"
   },
   "Alemania - Finlandia | Oriente": {
      "name": " Finlandia | Oriente",
      "latitude": -36.78440538,
      "longitude": -73.10159681,
      "services": "02d-12q-40p-41r-42f-42h-43t"
   },
   "Alemania - Finlandia | Poniente": {
      "name": " Finlandia | Poniente",
      "latitude": -36.78447149,
      "longitude": -73.10178567,
      "services": "02k-12a-40b-41c-42u-42w-81s"
   },
   "Alemania - Portugal": {
      "name": " Portugal",
      "latitude": -36.77935898,
      "longitude": -73.10562063,
      "services": "43j"
   },
   "Alemania - Postdam": {
      "name": " Postdam",
      "latitude": -36.79436514,
      "longitude": -73.10555365,
      "services": "65e"
   },
   "Alemparte - Ejército": {
      "name": " Ejército",
      "latitude": -36.8153848,
      "longitude": -73.06197744,
      "services": "90e"
   },
   "Alemparte - Vía Interlagunas": {
      "name": " Vía Interlagunas",
      "latitude": -36.81434127,
      "longitude": -73.06431301,
      "services": "90e-90j"
   },
   "Almirante Latorre - El Huascar | Norte": {
      "name": " El Huascar | Norte",
      "latitude": -36.72047181,
      "longitude": -73.12594532,
      "services": "62h-62o"
   },
   "Almirante Latorre - El Huascar | Sur": {
      "name": " El Huascar | Sur",
      "latitude": -36.72061438,
      "longitude": -73.12584109,
      "services": "62m-62n"
   },
   "Almirante Latorre - La Marina": {
      "name": " La Marina",
      "latitude": -36.72363351,
      "longitude": -73.13097425,
      "services": "02d-02p-10n-10o-10p-31f-32g-32y-62h-62o-80z"
   },
   "Almirante Latorre - Pedro Montt": {
      "name": " Pedro Montt",
      "latitude": -36.72438482,
      "longitude": -73.13175102,
      "services": "14t-16h-16i-16k-16v-80h-80j-80q"
   },
   "Almirante Latorre 788": {
      "name": "",
      "latitude": -36.7187114,
      "longitude": -73.12119616,
      "services": "62n"
   },
   "Almirante Latorre 860": {
      "name": "",
      "latitude": -36.71949208,
      "longitude": -73.12325964,
      "services": "62m-62n"
   },
   "Almirante Neff - Volcan Chillan | Norte": {
      "name": " Volcan Chillan | Norte",
      "latitude": -36.74477078,
      "longitude": -73.08623323,
      "services": "16h-16i"
   },
   "Almirante Neff - Volcan Chillan | Sur": {
      "name": " Volcan Chillan | Sur",
      "latitude": -36.74481871,
      "longitude": -73.08585125,
      "services": "16k-16v"
   },
   "Almirante Pedro Latorre - Pedro Montt | Norte": {
      "name": " Pedro Montt | Norte",
      "latitude": -36.72425265,
      "longitude": -73.13194457,
      "services": "14h-80k-80l"
   },
   "Almirante Villarroel": {
      "name": "",
      "latitude": -36.70713986,
      "longitude": -73.11389934,
      "services": "11f-11r-12a-12b-12q-12r-13g-13s-20a-20j-20z-56o-81c"
   },
   "Alonso Garcia De Ramon - Garcia Hurtado De Mendoza": {
      "name": " Garcia Hurtado De Mendoza",
      "latitude": -36.79171205,
      "longitude": -73.05731818,
      "services": "60x-60y"
   },
   "Alonso Garcia De Ramon | Oriente": {
      "name": "",
      "latitude": -36.79042104,
      "longitude": -73.05829213,
      "services": "60x-60y"
   },
   "Alonso Garcia De Ramon | Poniente": {
      "name": "",
      "latitude": -36.79048593,
      "longitude": -73.05840256,
      "services": "60k-60l"
   },
   "Alto Horno - Almirante Navarrete": {
      "name": " Almirante Navarrete",
      "latitude": -36.74480041,
      "longitude": -73.10554109,
      "services": "11f-30q-30r-32h-62m-62n"
   },
   "Alto Horno - Capitan Enos": {
      "name": " Capitan Enos",
      "latitude": -36.74218315,
      "longitude": -73.10702778,
      "services": "11f-30q-30r-32h-50u-57p-62m-62n"
   },
   "Alto Horno - Daniel Peine": {
      "name": " Daniel Peine",
      "latitude": -36.74113067,
      "longitude": -73.10772559,
      "services": "11f-30q-30r-32h-50u-57p-62m-62n"
   },
   "Alto Horno - Desiderio Garcia": {
      "name": " Desiderio Garcia",
      "latitude": -36.74794245,
      "longitude": -73.10361576,
      "services": "11r-30b-30c-32y-50s-57y-62h-62o"
   },
   "Alto Horno - Eudocio Milas": {
      "name": " Eudocio Milas",
      "latitude": -36.74566795,
      "longitude": -73.10511655,
      "services": "11f-30q-30r-32h-62m-62n"
   },
   "Alto Horno - Gabriela Mistral": {
      "name": " Gabriela Mistral",
      "latitude": -36.74679552,
      "longitude": -73.10460721,
      "services": "11f-30q-30r-32h-62m-62n"
   },
   "Alto Horno - Gran Bretana | Oriente": {
      "name": " Gran Bretana | Oriente",
      "latitude": -36.73695584,
      "longitude": -73.11045981,
      "services": "11f"
   },
   "Alto Horno - Gran Bretana | Poniente": {
      "name": " Gran Bretana | Poniente",
      "latitude": -36.73720848,
      "longitude": -73.11047602,
      "services": "11r-30b-30c"
   },
   "Alto Horno - Gran Bretaña | Oriente": {
      "name": " Gran Bretaña | Oriente",
      "latitude": -36.73695584,
      "longitude": -73.11045981,
      "services": "32h-50u-57p-62m-62n"
   },
   "Alto Horno - Gran Bretaña | Poniente": {
      "name": " Gran Bretaña | Poniente",
      "latitude": -36.73720848,
      "longitude": -73.11047602,
      "services": "32y-50u-57y-62h-62o"
   },
   "Alto Horno - Haiti": {
      "name": " Haiti",
      "latitude": -36.74015874,
      "longitude": -73.10838782,
      "services": "11f-30q-30r-32h-50u-57p-62m-62n"
   },
   "Alto Horno - Los Aromos": {
      "name": " Los Aromos",
      "latitude": -36.74388202,
      "longitude": -73.10616846,
      "services": "11r-30b-30c-32y-50s-57y-62h-62o"
   },
   "Alto Horno - Los Castanos": {
      "name": " Los Castanos",
      "latitude": -36.74586884,
      "longitude": -73.10527961,
      "services": "11r-30b-30c"
   },
   "Alto Horno - Los Castaños": {
      "name": " Los Castaños",
      "latitude": -36.74586884,
      "longitude": -73.10527961,
      "services": "32y-50s-57y-62h-62o"
   },
   "Alto Horno - Los Olmos": {
      "name": " Los Olmos",
      "latitude": -36.7468263,
      "longitude": -73.10484166,
      "services": "11r-30b-30c-32y-50s-57y-62h-62o"
   },
   "Alto Horno - Los Tilos": {
      "name": " Los Tilos",
      "latitude": -36.74502762,
      "longitude": -73.1056587,
      "services": "11r-30b-30c-32y-50s-57y-62h-62o"
   },
   "Alto Horno - Nicaragua | Oriente": {
      "name": " Nicaragua | Oriente",
      "latitude": -36.7391149,
      "longitude": -73.10906299,
      "services": "11f-30r-32h-50u-57p-62m-62n"
   },
   "Alto Horno - Nicaragua | Poniente": {
      "name": " Nicaragua | Poniente",
      "latitude": -36.73927957,
      "longitude": -73.10921573,
      "services": "11r-30b-30c-32y-50s-57y-62h-62o"
   },
   "Alto Horno - Taltal": {
      "name": " Taltal",
      "latitude": -36.74769214,
      "longitude": -73.10374513,
      "services": "11f-30q-30r-32h-62m-62n"
   },
   "Alto Horno - Victor Domingo Silva": {
      "name": " Victor Domingo Silva",
      "latitude": -36.74348451,
      "longitude": -73.10611103,
      "services": "11f-30q-30r-32h-62m-62n"
   },
   "Alto Nte": {
      "name": "",
      "latitude": -36.74238332,
      "longitude": -73.10714605,
      "services": "11r-30b-30c-32y-50s-57y-62h-62o"
   },
   "Americo Vespucio - Alonso De Ojeda": {
      "name": " Alonso De Ojeda",
      "latitude": -36.78368592,
      "longitude": -73.07868804,
      "services": "B02"
   },
   "Andailen - Pje Sur": {
      "name": " Pje Sur",
      "latitude": -36.80044131,
      "longitude": -73.03128588,
      "services": "44u-62n-63k-65d-65e"
   },
   "Andailen - Vicuña Mackena": {
      "name": " Vicuña Mackena",
      "latitude": -36.80032177,
      "longitude": -73.03114324,
      "services": "44e-62o-63p-65q-65r"
   },
   "Andalien - Campos Deportivos | Norte": {
      "name": " Campos Deportivos | Norte",
      "latitude": -36.79272714,
      "longitude": -73.03680657,
      "services": "44e-60m-65q-65r"
   },
   "Andalien - Campos Deportivos | Sur": {
      "name": " Campos Deportivos | Sur",
      "latitude": -36.79253046,
      "longitude": -73.03745037,
      "services": "60z"
   },
   "Andalien - Dario Silva | Oriente": {
      "name": " Dario Silva | Oriente",
      "latitude": -36.79727794,
      "longitude": -73.03293591,
      "services": "44e-60m-63p-65q-65r"
   },
   "Andalien - Dario Silva | Poniente": {
      "name": " Dario Silva | Poniente",
      "latitude": -36.79747047,
      "longitude": -73.03313272,
      "services": "44u-60z-63k-65d-65e"
   },
   "Andalien - Los Notros": {
      "name": " Los Notros",
      "latitude": -36.79525837,
      "longitude": -73.03453415,
      "services": "44u-60z-65d-65e"
   },
   "Andalien - Parque Central | Oriente": {
      "name": " Parque Central | Oriente",
      "latitude": -36.79909072,
      "longitude": -73.03191447,
      "services": "44e-60m-63p-65q-65r"
   },
   "Andalien - Parque Central | Poniente": {
      "name": " Parque Central | Poniente",
      "latitude": -36.79933527,
      "longitude": -73.03198666,
      "services": "44u-60z-63k-65d-65e"
   },
   "Andalien - Pje Cinco": {
      "name": " Pje Cinco",
      "latitude": -36.79487059,
      "longitude": -73.03452164,
      "services": "44e-60m-65q-65r"
   },
   "Andalien 219": {
      "name": "",
      "latitude": -36.79368425,
      "longitude": -73.03581834,
      "services": "44u-60z-65d-65e"
   },
   "Andalien 436": {
      "name": "",
      "latitude": -36.79683655,
      "longitude": -73.03349636,
      "services": "44u-60z-63k-65d-65e"
   },
   "Andalien 630": {
      "name": "",
      "latitude": -36.79584299,
      "longitude": -73.03391402,
      "services": "44e-60m-63p-65q-65r"
   },
   "Andres Bello": {
      "name": "",
      "latitude": -36.83426577,
      "longitude": -73.05745321,
      "services": "10k-10l-10m-10n-10o-10p-11q-11r-12a-12b-13s-14t-14u-16k-16v-17w-17x-18p-60z-72j-72k-80h-80q-80z-81s"
   },
   "Anibal Pinto - Alte Riveros | Oriente": {
      "name": " Alte Riveros | Oriente",
      "latitude": -36.81111011,
      "longitude": -73.05961915,
      "services": "90x"
   },
   "Anibal Pinto - Bandera": {
      "name": " Bandera",
      "latitude": -36.8163366,
      "longitude": -73.05623621,
      "services": "63g-63h"
   },
   "Anibal Pinto - Williams Rebolledo | Norte": {
      "name": " Williams Rebolledo | Norte",
      "latitude": -36.72669825,
      "longitude": -72.98519113,
      "services": "30m-30n-30q-30r-31d-32e-32h"
   },
   "Anibal Pinto - Williams Rebolledo | Sur": {
      "name": " Williams Rebolledo | Sur",
      "latitude": -36.72680579,
      "longitude": -72.98515473,
      "services": "30b-30c-30d-31f-32g-32y"
   },
   "Antihuala - Tulpan": {
      "name": " Tulpan",
      "latitude": -36.80022611,
      "longitude": -73.09329345,
      "services": "12r-41r-65e"
   },
   "Aníbal Pinto - Almte Riveros": {
      "name": " Almte Riveros",
      "latitude": -36.81113951,
      "longitude": -73.05976413,
      "services": "90y"
   },
   "Aníbal Pinto - Argentina": {
      "name": " Argentina",
      "latitude": -36.81488563,
      "longitude": -73.05734908,
      "services": "60z"
   },
   "Aníbal Pinto - Cristián Canales": {
      "name": " Cristián Canales",
      "latitude": -36.8094476,
      "longitude": -73.05936968,
      "services": "90x"
   },
   "Aníbal Pinto - Pje Dieciseis": {
      "name": " Pje Dieciseis",
      "latitude": -36.8062856,
      "longitude": -73.0705462,
      "services": "90e"
   },
   "Arteaga Alemparte - Los Tordos": {
      "name": " Los Tordos",
      "latitude": -36.79553442,
      "longitude": -73.08234822,
      "services": "90e-90j"
   },
   "Arteaga Alemparte - Los Zorzales": {
      "name": " Los Zorzales",
      "latitude": -36.79618507,
      "longitude": -73.08189491,
      "services": "90j"
   },
   "Arteaga Alemparte | Oriente": {
      "name": "",
      "latitude": -36.79971098,
      "longitude": -73.07976713,
      "services": "90j"
   },
   "Arteaga Alemparte | Poniente": {
      "name": "",
      "latitude": -36.79982036,
      "longitude": -73.07984285,
      "services": "90e"
   },
   "Arturo Prat - Chacabuco": {
      "name": " Chacabuco",
      "latitude": -36.83415313,
      "longitude": -73.05607688,
      "services": "10a-10b-10c-10d-10j-10t-11e-11f-12q-12r-13g-14h-14z-16h-16i-17a-17o-18y-60m-72w-72z-80j-80k-80l-81c"
   },
   "Arturo Prat - Cochrane": {
      "name": " Cochrane",
      "latitude": -36.83348347,
      "longitude": -73.05646385,
      "services": "10a-10b-10c-10d-10j-10t-11e-11f-12q-12r-13g-14h-14z-16h-16i-17a-17o-18y-60m-72w-72z-80j-80k-80l-81c"
   },
   "Arturo Prat - Gral. Cruz": {
      "name": " Gral. Cruz",
      "latitude": -36.82302934,
      "longitude": -73.0631636,
      "services": "12q-12r-23q-30m-30n-30q-30r-31d-32e-32h-40p-41r-42h-43t-44u-50u-52a-56o-57p-60x-60y-62m-62n-63k-65e-70g-70h-70i-71i-81c-90j"
   },
   "Arturo Prat - Hipermercado Lider": {
      "name": " Hipermercado Lider",
      "latitude": -36.82845302,
      "longitude": -73.05970809,
      "services": "12q-12r-17a-30c-30m-30n-30q-30r-31d-32e-32h-40p-41r-42f-42h-43t-44u-50u-52a-56o-57p-57y-60m-60x-60y-62m-62n-63k-65e-70g-70h-70i-71i-81c-90x"
   },
   "Arturo Prat - Las Heras": {
      "name": " Las Heras",
      "latitude": -36.82616926,
      "longitude": -73.06115602,
      "services": "12q-12r-23q-30m-30n-30q-30r-31d-32e-32h-40p-41r-42h-43t-44u-50u-52a-56o-57p-60x-60y-62m-62n-63k-65e-70g-70h-70i-71i-81c-90j"
   },
   "Arturo Prat - Los Carrera": {
      "name": " Los Carrera",
      "latitude": -36.82736539,
      "longitude": -73.06044191,
      "services": "12q-12r-17a-30c-30m-30n-30q-30r-31d-32e-32h-40p-41r-42h-43t-44u-50u-52a-56o-57p-57y-60x-60y-62m-62n-63k-65e-70g-70h-70i-71i-81c"
   },
   "Arturo Prat - Manuel Rodríguez": {
      "name": " Manuel Rodríguez",
      "latitude": -36.82104875,
      "longitude": -73.0644131,
      "services": "90j"
   },
   "Arturo Prat - Martinez De Rosas": {
      "name": " Martinez De Rosas",
      "latitude": -36.8251252,
      "longitude": -73.06179901,
      "services": "12q-12r-30m-30n-30q-30r-41r"
   },
   "Arturo Prat - Martínez De Rosas": {
      "name": " Martínez De Rosas",
      "latitude": -36.8251252,
      "longitude": -73.06179901,
      "services": "23q-31d-32e-32h-40p-42h-43t-44u-50u-52a-56o-57p-60x-60y-62m-62n-63k-65e-70g-70h-70i-71i-81c-90j"
   },
   "Arturo Prat - Pedro De Valdivia | Norte": {
      "name": " Pedro De Valdivia | Norte",
      "latitude": -36.71688232,
      "longitude": -72.97242713,
      "services": "30r"
   },
   "Arturo Prat - San Martin": {
      "name": " San Martin",
      "latitude": -36.83248485,
      "longitude": -73.05712824,
      "services": "10a-10b-10c-10d-10j-10t-11e-11f-12q-12r-14h-14z-16h-16i"
   },
   "Arturo Prat - San Martín": {
      "name": " San Martín",
      "latitude": -36.83248485,
      "longitude": -73.05712824,
      "services": "13g-17a-17o-18y-60m-72w-72z-80j-80k-80l-81c"
   },
   "Autopista Conce. Talcahuano - Los Aleites": {
      "name": " Los Aleites",
      "latitude": -36.76542529,
      "longitude": -73.08597759,
      "services": "02a-02k-10a-10b-10c-10d-10j-10t-11f-13g-14h-16h-16i-20a-20j-20z-30q-30r-31d-32e-32h-50u-52a-56o-57p-62m-62n-70g-70h-70i-80j-80k-80l"
   },
   "Autopista Concep. Talcahuano - Benavente": {
      "name": " Benavente",
      "latitude": -36.77453055,
      "longitude": -73.08049641,
      "services": "10a-10b-10c-10d-10j-10t-11e-11f-13g-14h-16h-16i-20a-20j-20z-30q-50u-80j-80k-80l"
   },
   "Autopista Concep. Talcahuano - Jaime Repullo": {
      "name": " Jaime Repullo",
      "latitude": -36.76813072,
      "longitude": -73.08438668,
      "services": "10a-10b-10c-10d-10j-10t-11f-13g-14h-16h-16i-20a-20j-20z-30q-50u-80j-80k-80l"
   },
   "Autopista Concep. Talcahuano - Rio Colorado | Oriente": {
      "name": " Rio Colorado | Oriente",
      "latitude": -36.7723618,
      "longitude": -73.08182774,
      "services": "10a-10b-10c-10d-10j-10t-11e-11f-13g-14h-16h-16i-20a-20j-20z-30q-50u-80j-80k-80l"
   },
   "Autopista Concep. Talcahuano - Rio Lluta": {
      "name": " Rio Lluta",
      "latitude": -36.77007427,
      "longitude": -73.08306112,
      "services": "10a-10b-10c-10d-10j-10t-11e-11f-13g-14h-16h-16i-20a-20j-20z-30q-50u-80j-80k-80l"
   },
   "Autopista Talcahuano Concep. - Benavente": {
      "name": " Benavente",
      "latitude": -36.77469725,
      "longitude": -73.08077236,
      "services": "10k-10l-10m-10n-10o-10p-11q-11r-13s-14t-16k-16v-20l-20v-20w-30c-50s-57y-70k-80h-80q-80z"
   },
   "Autopista Talcahuna Concep. - Rio Lenga": {
      "name": " Rio Lenga",
      "latitude": -36.76965335,
      "longitude": -73.08378862,
      "services": "10k-10l-10m-10n-10o-10p-11q-11r-13s-14t-16k-16v-20l-20v-20w-30c-50s-57y-70k-80h-80q-80z"
   },
   "Autopista Talcahuna Concep. - Rio Petorca": {
      "name": " Rio Petorca",
      "latitude": -36.77165312,
      "longitude": -73.08259605,
      "services": "10k-10l-10m-10n-10o-10p-11q-11r-13s-14t-16k-16v-20l-20v-20w-30c-50s-57y-70k-80h-80q-80z"
   },
   "Av 101 - Bio Bio": {
      "name": " Bio Bio",
      "latitude": -36.93969206,
      "longitude": -73.02682102,
      "services": "14t-14u"
   },
   "Av Central | Sur": {
      "name": "",
      "latitude": -36.82461162,
      "longitude": -73.1293165,
      "services": "22x-24f-24t"
   },
   "Av Claudio Gay Ote - Calle Uno": {
      "name": " Calle Uno",
      "latitude": -36.75181605,
      "longitude": -73.08435567,
      "services": "16h"
   },
   "Av Claudio Gay Ote - Pje Dos": {
      "name": " Pje Dos",
      "latitude": -36.75070388,
      "longitude": -73.08413691,
      "services": "16h"
   },
   "Av Claudio Gay Ote - Pje Uno": {
      "name": " Pje Uno",
      "latitude": -36.7512488,
      "longitude": -73.08439218,
      "services": "16k-16v"
   },
   "Av Collao - P1 | Norte": {
      "name": " P1 | Norte",
      "latitude": -36.82186357,
      "longitude": -73.0052097,
      "services": "18p-22c-52a-70i"
   },
   "Av Gral Oscar Bonilla - Regimiento | Norte": {
      "name": " Regimiento | Norte",
      "latitude": -36.81212559,
      "longitude": -73.02495587,
      "services": "72k"
   },
   "Av Gral Oscar Bonilla - Regimiento | Sur": {
      "name": " Regimiento | Sur",
      "latitude": -36.81240052,
      "longitude": -73.02522905,
      "services": "14z-21q-23a-23n-41c-42u-90e"
   },
   "Av La Araucana - Patricio Lynch | N": {
      "name": " Patricio Lynch | N",
      "latitude": -36.97058383,
      "longitude": -72.94163225,
      "services": "18y-80j-80k-81c"
   },
   "Av La Araucana - Patricio Lynch | S": {
      "name": " Patricio Lynch | S",
      "latitude": -36.97089212,
      "longitude": -72.94121957,
      "services": "18p-80h-81s"
   },
   "Av La Reconquista": {
      "name": "",
      "latitude": -36.80041327,
      "longitude": -73.10386915,
      "services": "65e"
   },
   "Av Laguna Redonda - Almte Riveros": {
      "name": " Almte Riveros",
      "latitude": -36.81193859,
      "longitude": -73.0662119,
      "services": "90y"
   },
   "Av Las Margaritas - Las Petunias": {
      "name": " Las Petunias",
      "latitude": -36.8364334,
      "longitude": -73.11311689,
      "services": "21b"
   },
   "Av Las Margaritas - Los Crisantelmos": {
      "name": " Los Crisantelmos",
      "latitude": -36.83697163,
      "longitude": -73.10276496,
      "services": "21b"
   },
   "Av Las Rosas - Las Azaleas": {
      "name": " Las Azaleas",
      "latitude": -36.83446748,
      "longitude": -73.11021618,
      "services": "21b"
   },
   "Av Las Rosas - Pje Las Yerbateras": {
      "name": " Pje Las Yerbateras",
      "latitude": -36.83476565,
      "longitude": -73.10460233,
      "services": "21b"
   },
   "Av Las Torres - Ejercito": {
      "name": " Ejercito",
      "latitude": -36.82806138,
      "longitude": -73.12630613,
      "services": "21b-21q-23a-40g-40n"
   },
   "Av Las Torres - La Marina": {
      "name": " La Marina",
      "latitude": -36.82927236,
      "longitude": -73.1230811,
      "services": "21b-21q-23a-40g"
   },
   "Av Las Torres - Pasaje Cinco | Norte": {
      "name": " Pasaje Cinco | Norte",
      "latitude": -36.82733369,
      "longitude": -73.12817386,
      "services": "21b-21q-23a-40n"
   },
   "Av Las Torres - Pasaje Cinco | Sur": {
      "name": " Pasaje Cinco | Sur",
      "latitude": -36.82749675,
      "longitude": -73.12822595,
      "services": "21b-21q-23q"
   },
   "Av Las Torres - Pasaje Uno": {
      "name": " Pasaje Uno",
      "latitude": -36.82896023,
      "longitude": -73.12443419,
      "services": "21b-21q-23q"
   },
   "Av Los Copihues - Curarrehue": {
      "name": " Curarrehue",
      "latitude": -36.80010382,
      "longitude": -73.09185066,
      "services": "12r-41r-65e"
   },
   "Av Los Copihues - Eduardo Barrios": {
      "name": " Eduardo Barrios",
      "latitude": -36.79945501,
      "longitude": -73.0884932,
      "services": "12r-41r-65e"
   },
   "Av Los Copihues - Fernando Santivan": {
      "name": " Fernando Santivan",
      "latitude": -36.79979951,
      "longitude": -73.09030032,
      "services": "12r-41r-65e"
   },
   "Av Los Copihues - Las Loberias": {
      "name": " Las Loberias",
      "latitude": -36.80009772,
      "longitude": -73.09090935,
      "services": "12b-41c-41q-65r"
   },
   "Av Los Copihues - Los Robles": {
      "name": " Los Robles",
      "latitude": -36.79967592,
      "longitude": -73.08877912,
      "services": "12b-41c-41q-65r"
   },
   "Av Padre Hurtado - Los Carrera": {
      "name": " Los Carrera",
      "latitude": -36.82790708,
      "longitude": -73.06215487,
      "services": "12a-12b-81s"
   },
   "Av Pdte. Jorge Alessandri | Oriente": {
      "name": "",
      "latitude": -36.83506282,
      "longitude": -73.10119744,
      "services": "21b"
   },
   "Av Pdte. Jorge Alessandri | Poniente": {
      "name": "",
      "latitude": -36.83459826,
      "longitude": -73.10145561,
      "services": "21q"
   },
   "Av Pedro Aguierre Cerda 380": {
      "name": "",
      "latitude": -36.83922153,
      "longitude": -73.08736909,
      "services": "63i"
   },
   "Av Pedro Aguirre Cerda - Av San Pedro": {
      "name": " Av San Pedro",
      "latitude": -36.83815828,
      "longitude": -73.10765837,
      "services": "20l-20v-20w-22d-22e-22n-22o-23l-23t-40g-40n"
   },
   "Av Pedro Aguirre Cerda 1501": {
      "name": "",
      "latitude": -36.83861474,
      "longitude": -73.10180485,
      "services": "20a-20j-20z-22j-22k-22r-22s-22x-23n-23p-40n"
   },
   "Av Pedro Aguirre Cerda | Pincheira": {
      "name": "",
      "latitude": -36.83906874,
      "longitude": -73.09132009,
      "services": "20a-20j-20z-21q-22j-22k-22r-22s-22x-23n-23p"
   },
   "Av Principal - Cinco Pte": {
      "name": " Cinco Pte",
      "latitude": -36.86639356,
      "longitude": -73.03527047,
      "services": "72w-72z"
   },
   "Av Rucalhue": {
      "name": "",
      "latitude": -36.80193606,
      "longitude": -73.09763346,
      "services": "02a"
   },
   "Av Rulcahue - Calle Dos": {
      "name": " Calle Dos",
      "latitude": -36.80163183,
      "longitude": -73.09833589,
      "services": "02p"
   },
   "Av. Collao - Central | Norte": {
      "name": " Central | Norte",
      "latitude": -36.82171046,
      "longitude": -73.00736617,
      "services": "18p-22c-52a-70i"
   },
   "Av. Collao - Central | Sur": {
      "name": " Central | Sur",
      "latitude": -36.82182853,
      "longitude": -73.00795729,
      "services": "18y-22r-52d-70i-72z"
   },
   "Av. Collao - Chiloe": {
      "name": " Chiloe",
      "latitude": -36.81922021,
      "longitude": -73.01799111,
      "services": "24m-24r"
   },
   "Av. Collao - Chiloé": {
      "name": " Chiloé",
      "latitude": -36.81922021,
      "longitude": -73.01799111,
      "services": "17x-18p-22c-22d-22j-22n-22o-23l-40p-52a-56o-70g-70h-70i-71i-72j-90x"
   },
   "Av. Collao - Cnel Jose Seguel": {
      "name": " Cnel Jose Seguel",
      "latitude": -36.81880868,
      "longitude": -73.01925731,
      "services": "24m-24r"
   },
   "Av. Collao - Cnel José Seguel": {
      "name": " Cnel José Seguel",
      "latitude": -36.81880868,
      "longitude": -73.01925731,
      "services": "17x-18p-22c-22d-22n-22o-23l-40p-52a-56o-70g-70h-70i-71i-72j-90x"
   },
   "Av. Collao - Mercedes Marín Del Solar": {
      "name": " Mercedes Marín Del Solar",
      "latitude": -36.82037533,
      "longitude": -73.01375729,
      "services": "17x-18p-22c-22d-22n-22o-23l-40p-52a-70g-70h-70i-71i-72j"
   },
   "Av. Collao - P2 | Norte": {
      "name": " P2 | Norte",
      "latitude": -36.82201177,
      "longitude": -73.00329999,
      "services": "18p-52a-70i"
   },
   "Av. Collao - P2 | Sur": {
      "name": " P2 | Sur",
      "latitude": -36.82211482,
      "longitude": -73.00353274,
      "services": "18y-52d-70i-72z"
   },
   "Av. Collao - Paula Pineda": {
      "name": " Paula Pineda",
      "latitude": -36.82029417,
      "longitude": -73.01537373,
      "services": "17o-18y-22k-22r-22s-23p-40b-52d-70f-70j-70k-71z-72w-72z"
   },
   "Av. Collao | P1 Sur": {
      "name": "",
      "latitude": -36.82200696,
      "longitude": -73.00516113,
      "services": "18y-22r-52d-70i-72z"
   },
   "Av. Diagonal Biobio - Av Las Torres": {
      "name": " Av Las Torres",
      "latitude": -36.83067728,
      "longitude": -73.12072579,
      "services": "22e-23a-24m-24r-40g"
   },
   "Av. Diagonal Biobio - Candelaria | Oriente": {
      "name": " Candelaria | Oriente",
      "latitude": -36.83392326,
      "longitude": -73.12023149,
      "services": "22e-23a-24m-24r-40g"
   },
   "Av. Diagonal Biobio - Candelaria | Poniente": {
      "name": " Candelaria | Poniente",
      "latitude": -36.83396143,
      "longitude": -73.12036511,
      "services": "22x-23q-24f-24t-40n"
   },
   "Av. Diagonal Biobio - Las Palomas | Oriente": {
      "name": " Las Palomas | Oriente",
      "latitude": -36.83532418,
      "longitude": -73.11990565,
      "services": "22e-23a-24m-24r-40g"
   },
   "Av. Diagonal Biobio - Las Palomas | Poniente": {
      "name": " Las Palomas | Poniente",
      "latitude": -36.83553283,
      "longitude": -73.11999025,
      "services": "22x-23q-24f-24t-40n"
   },
   "Av. Diagonal Biobio - Las Torcazas | Oriente": {
      "name": " Las Torcazas | Oriente",
      "latitude": -36.83648322,
      "longitude": -73.11910356,
      "services": "22e-23a-24m-24r-40g"
   },
   "Av. Diagonal Biobio - Las Torcazas | Poniente": {
      "name": " Las Torcazas | Poniente",
      "latitude": -36.83661113,
      "longitude": -73.11921256,
      "services": "22x-23q-24f-24t-40n"
   },
   "Av. Diagonal Biobio - Los Abetos | Oriente": {
      "name": " Los Abetos | Oriente",
      "latitude": -36.8320434,
      "longitude": -73.12047933,
      "services": "22e-23a-24m-24r-40g"
   },
   "Av. Diagonal Biobio - Los Abetos | Poniente": {
      "name": " Los Abetos | Poniente",
      "latitude": -36.83182117,
      "longitude": -73.12067538,
      "services": "22x-23q-24f-24t-40n"
   },
   "Av. Diagonal Biobio - Los Alamos": {
      "name": " Los Alamos",
      "latitude": -36.83098467,
      "longitude": -73.12078555,
      "services": "22x-23q-24f-24t-40n"
   },
   "Av. Dos - Calle Uno": {
      "name": " Calle Uno",
      "latitude": -36.79773219,
      "longitude": -73.10927009,
      "services": "02p-41v-60l-60y"
   },
   "Av. Dos - Pje Doce | Norte": {
      "name": " Pje Doce | Norte",
      "latitude": -36.79752069,
      "longitude": -73.11184182,
      "services": "02p-41v-60l-60y"
   },
   "Av. Dos - Pje Doce | Sur": {
      "name": " Pje Doce | Sur",
      "latitude": -36.79767563,
      "longitude": -73.1119501,
      "services": "02a-60k"
   },
   "Av. Dos - Pje Uno": {
      "name": " Pje Uno",
      "latitude": -36.79779661,
      "longitude": -73.10878657,
      "services": "02a-60k"
   },
   "Av. Michimalongo - Central": {
      "name": " Central",
      "latitude": -36.84361421,
      "longitude": -73.09430223,
      "services": "24f-24t-40n"
   },
   "Av. Michimalongo - Centro Comercial": {
      "name": " Centro Comercial",
      "latitude": -36.84277994,
      "longitude": -73.09342581,
      "services": "22e-24m-24r-40g"
   },
   "Av. Michimalongo - Colmenares": {
      "name": " Colmenares",
      "latitude": -36.84236517,
      "longitude": -73.09229227,
      "services": "24f-24t-40n"
   },
   "Av. Michimalongo - Servicentro Copec": {
      "name": " Servicentro Copec",
      "latitude": -36.84406652,
      "longitude": -73.09721795,
      "services": "22e-24m-24r-40g"
   },
   "Av. Padre Hurtado - Maipu": {
      "name": " Maipu",
      "latitude": -36.82858875,
      "longitude": -73.06139767,
      "services": "12a-12b-41c-41q"
   },
   "Av. Padre Hurtado - Maipú": {
      "name": " Maipú",
      "latitude": -36.82858875,
      "longitude": -73.06139767,
      "services": "23a-40b-43j-52d-60k-60l-62o-63p-65r-70f-70j-71z-90e"
   },
   "Av. Veintiuno De Mayo - Calle A | Poniente": {
      "name": " Calle A | Poniente",
      "latitude": -36.81878631,
      "longitude": -72.98734162,
      "services": "18y-70i"
   },
   "Av. Veintiuno De Mayo - Los Copihues | Oriente": {
      "name": " Los Copihues | Oriente",
      "latitude": -36.81942758,
      "longitude": -72.98795261,
      "services": "18y-70i"
   },
   "Av. Venus - Bio Bio | Norte": {
      "name": " Bio Bio | Norte",
      "latitude": -36.82847365,
      "longitude": -73.14281158,
      "services": "20l-20v-20w"
   },
   "Av. Venus - Bio Bio | Sur": {
      "name": " Bio Bio | Sur",
      "latitude": -36.82860767,
      "longitude": -73.14331288,
      "services": "20a-20j-20z"
   },
   "Av. Venus - Daniel Belmar": {
      "name": " Daniel Belmar",
      "latitude": -36.82864011,
      "longitude": -73.13962329,
      "services": "20a-20j-20z"
   },
   "Av. Venus - Galvarino | Sur": {
      "name": " Galvarino | Sur",
      "latitude": -36.82856057,
      "longitude": -73.1414528,
      "services": "20a-20j-20z"
   },
   "Av. Venus - Los Boldos": {
      "name": " Los Boldos",
      "latitude": -36.82840081,
      "longitude": -73.14045878,
      "services": "20l-20v-20w"
   },
   "Av. Venus | Boca Sur": {
      "name": "",
      "latitude": -36.82872039,
      "longitude": -73.14764928,
      "services": "20l-20v-20w"
   },
   "Aviacion": {
      "name": "",
      "latitude": -36.77727691,
      "longitude": -73.09265212,
      "services": "02d"
   },
   "Aviacion - Tres Sur": {
      "name": " Tres Sur",
      "latitude": -36.7791287,
      "longitude": -73.09402924,
      "services": "02d"
   },
   "B OHiggins - Calle A": {
      "name": " Calle A",
      "latitude": -36.93691016,
      "longitude": -73.01188117,
      "services": "80l"
   },
   "B Ohiggins - Caupolican": {
      "name": " Caupolican",
      "latitude": -36.8973938,
      "longitude": -73.03225384,
      "services": "10o-12b-14u-17w-18p-80z-81s"
   },
   "Bahia Dichato - Caleta Cantera": {
      "name": " Caleta Cantera",
      "latitude": -36.71624296,
      "longitude": -73.14021076,
      "services": "02k-70g-70h"
   },
   "Bahia Dichato - Caleta Chome": {
      "name": " Caleta Chome",
      "latitude": -36.71456105,
      "longitude": -73.1392885,
      "services": "02k-70g-70h"
   },
   "Bahia Dichato - Caleta El Chalet": {
      "name": " Caleta El Chalet",
      "latitude": -36.71285315,
      "longitude": -73.13843407,
      "services": "02k-70g-70h"
   },
   "Bahia Dichato - Caleta El Sold": {
      "name": " Caleta El Sold",
      "latitude": -36.71491367,
      "longitude": -73.13935836,
      "services": "02p-70j-70k"
   },
   "Bahia Dichato - Playa Chivilongo": {
      "name": " Playa Chivilongo",
      "latitude": -36.7131874,
      "longitude": -73.13848198,
      "services": "02p-70j-70k"
   },
   "Bahia Dichato - Playa El Huevillo": {
      "name": " Playa El Huevillo",
      "latitude": -36.71675033,
      "longitude": -73.14037766,
      "services": "02p-70j-70k"
   },
   "Bahia Mansa": {
      "name": "",
      "latitude": -36.71080707,
      "longitude": -73.1442041,
      "services": "10n-70f"
   },
   "Baldomero Sánchez": {
      "name": "",
      "latitude": -36.82800005,
      "longitude": -73.06842,
      "services": "65q"
   },
   "Balmaceda": {
      "name": "",
      "latitude": -36.71120174,
      "longitude": -72.9744124,
      "services": "30b-30d-30m-31d-31f-32e-32g-32h-32y"
   },
   "Balmaceda - David Quiroga": {
      "name": " David Quiroga",
      "latitude": -36.71195605,
      "longitude": -72.97583673,
      "services": "30b-30d-30m-31f-32e-32g-32y"
   },
   "Balmaceda - Los Lingues": {
      "name": " Los Lingues",
      "latitude": -36.79907895,
      "longitude": -73.03829193,
      "services": "63k"
   },
   "Balmaceda - Malaquias Concha": {
      "name": " Malaquias Concha",
      "latitude": -36.71219308,
      "longitude": -72.97652459,
      "services": "30b-30d-30m-31f-32e-32g-32y"
   },
   "Balmaceda - Manuel Gutierrez": {
      "name": " Manuel Gutierrez",
      "latitude": -36.80082871,
      "longitude": -73.0372722,
      "services": "63k"
   },
   "Balmaceda - Manuel Rodriguez": {
      "name": " Manuel Rodriguez",
      "latitude": -36.71154518,
      "longitude": -72.9749967,
      "services": "30b-30d-30m-32e-32g-32y"
   },
   "Balmaceda - Vasconia": {
      "name": " Vasconia",
      "latitude": -36.79990208,
      "longitude": -73.03792349,
      "services": "63p"
   },
   "Banco Encalada - Angamos": {
      "name": " Angamos",
      "latitude": -36.71820329,
      "longitude": -73.10846743,
      "services": "02a-02k-10a-10b-10c-10d-10j-10t-11e-11f-12q-12r-13g-14h-16h-16i-20a-20j-20z-31d-32e-52a-56o-70g-70h-70i-80j-80k-80l-81c"
   },
   "Banco Encalada - Baquedano": {
      "name": " Baquedano",
      "latitude": -36.7170352,
      "longitude": -73.10869761,
      "services": "02a-02k-10a-10b-10c-10d-10j-10t-11e-11f-12q-12r-13g-14h-16h-16i-20a-20j-20z-31d-32e-52a-56o-70g-70h-70i-80j-80k-80l-81c"
   },
   "Banco Encalada - Esmeralda | Norte": {
      "name": " Esmeralda | Norte",
      "latitude": -36.71473849,
      "longitude": -73.10994065,
      "services": "02a-02k-10a-10b-10c-10d-10j-10t-11e-11f-12q-12r-13g-14h-16h-16i-20a-20j-20z-31d-32e-52a-56o-70g-70h-70i-80j-80k-80l-81c"
   },
   "Banco Encalada - Esmeralda | Sur": {
      "name": " Esmeralda | Sur",
      "latitude": -36.71480725,
      "longitude": -73.11029722,
      "services": "70f-70j"
   },
   "Banco Encalada - Maipu | Norte": {
      "name": " Maipu | Norte",
      "latitude": -36.71222907,
      "longitude": -73.11368535,
      "services": "02a-02k-10a-10b-10c-10d-10j-10t-11e-11f-12q-12r-13g-14h-16h-16i-20a-20j-20z-31d-32e-52a-56o-70g-70h-70i-80j-80k-80l-81c"
   },
   "Banco Encalada - Maipu | Sur": {
      "name": " Maipu | Sur",
      "latitude": -36.71245645,
      "longitude": -73.11381413,
      "services": "70f-70j-81s"
   },
   "Banco Encalada | Norte": {
      "name": "",
      "latitude": -36.71357689,
      "longitude": -73.11171559,
      "services": "02a-02k-10a-10b-10c-10d-10j-10t-11e-11f-12q-12r-13g-14h-16h-16i-20a-20j-20z-31d-32e-52a-56o-70g-70h-70i-80j-80k-80l-81c"
   },
   "Banco Encalada | Sur": {
      "name": "",
      "latitude": -36.71379562,
      "longitude": -73.11186697,
      "services": "70f-70j-81s"
   },
   "Baquedano - Lorenzo Arenas": {
      "name": " Lorenzo Arenas",
      "latitude": -36.8128828,
      "longitude": -73.03148286,
      "services": "43t-62n-63f-65d"
   },
   "Baquedano - Sta María": {
      "name": " Sta María",
      "latitude": -36.81180246,
      "longitude": -73.03319196,
      "services": "43t-62n-63f-65d"
   },
   "Barrio Civico - Bdo OHiggins": {
      "name": " Bdo OHiggins",
      "latitude": -36.83129549,
      "longitude": -73.05880656,
      "services": "10k-10l-10m-10n-10o-10p-11q-11r-14t-14u-16k-16v"
   },
   "Barrio Cívico - Bdo OHiggins": {
      "name": " Bdo OHiggins",
      "latitude": -36.83129549,
      "longitude": -73.05880656,
      "services": "13s-17w-17x-18p-72j-72k-80h-80q-80z-B02"
   },
   "Barrio Norte": {
      "name": "",
      "latitude": -36.80692039,
      "longitude": -73.05144157,
      "services": "62n-62o-63i-63k-63p"
   },
   "Bdo OHiggins - Angol": {
      "name": " Angol",
      "latitude": -36.82938077,
      "longitude": -73.05415706,
      "services": "10l-10m-10n-10o-10p-11q-11r-13s-14t-14u-16k-16v-17w-17x-18p-21b-22c-22d-22e-24m-30q-30r-31d-32e-32h-40g-42w-50s-50u-56o-57p-57y-62m-62n-63i-70g-70h-70i-72j-72k-80h-80q-80z-90x-B02"
   },
   "Bdo OHiggins - Arauco": {
      "name": " Arauco",
      "latitude": -36.90793364,
      "longitude": -73.02974958,
      "services": "10o-12b-14u-17w-18p-80z-81s"
   },
   "Bdo OHiggins - Arturo Pratt": {
      "name": " Arturo Pratt",
      "latitude": -36.91281932,
      "longitude": -73.02924225,
      "services": "10b-12r-14z-17a-18y-80l-81c"
   },
   "Bdo OHiggins - Bilbao": {
      "name": " Bilbao",
      "latitude": -36.91047674,
      "longitude": -73.02929131,
      "services": "10b-12r-14z-17a-18y-80l-81c"
   },
   "Bdo OHiggins - Calle 1": {
      "name": " Calle 1",
      "latitude": -36.94160046,
      "longitude": -73.00994025,
      "services": "80l"
   },
   "Bdo OHiggins - Calle 2": {
      "name": " Calle 2",
      "latitude": -36.94257475,
      "longitude": -73.0099935,
      "services": "80l"
   },
   "Bdo OHiggins - Calle 3": {
      "name": " Calle 3",
      "latitude": -36.92310466,
      "longitude": -73.02336456,
      "services": "80l"
   },
   "Bdo OHiggins - Calle B": {
      "name": " Calle B",
      "latitude": -36.93756294,
      "longitude": -73.01157228,
      "services": "80l"
   },
   "Bdo OHiggins - Calle Nueva": {
      "name": " Calle Nueva",
      "latitude": -36.92498975,
      "longitude": -73.02182281,
      "services": "80l"
   },
   "Bdo OHiggins - Calle1": {
      "name": " Calle1",
      "latitude": -36.94928302,
      "longitude": -73.01230069,
      "services": "80z"
   },
   "Bdo OHiggins - Calle1 | Oriente": {
      "name": " Calle1 | Oriente",
      "latitude": -36.89989956,
      "longitude": -73.03062956,
      "services": "10b-12r-14z-17a-80l-81c"
   },
   "Bdo OHiggins - Calle1 | Poniente": {
      "name": " Calle1 | Poniente",
      "latitude": -36.89996411,
      "longitude": -73.03071768,
      "services": "10o-12b-14u-17w-18p-18y-80z-81s"
   },
   "Bdo OHiggins - Cochrane | Oriente": {
      "name": " Cochrane | Oriente",
      "latitude": -36.92113567,
      "longitude": -73.02474002,
      "services": "80l"
   },
   "Bdo OHiggins - Cochrane | Poniente": {
      "name": " Cochrane | Poniente",
      "latitude": -36.92105683,
      "longitude": -73.02487676,
      "services": "80z"
   },
   "Bdo OHiggins - Colo Colo": {
      "name": " Colo Colo",
      "latitude": -36.82662374,
      "longitude": -73.0476232,
      "services": "10l-10m-10n-10o-10p-11q-11r-13s-14t-14u-16k-16v-17w-17x-18p-21b-22c-22d-22e-24m-30q-30r-31d-32e-32h-40g-42w-50s-56o-57p-57y-62m-62n-70g-70h-70i-72j-72k-80h-80q-80z-90x-B02"
   },
   "Bdo OHiggins - Colon | Oriente": {
      "name": " Colon | Oriente",
      "latitude": -36.90207161,
      "longitude": -73.03007992,
      "services": "10b-12r-14z"
   },
   "Bdo OHiggins - Colon | Poniente": {
      "name": " Colon | Poniente",
      "latitude": -36.90284789,
      "longitude": -73.03014974,
      "services": "10o-12b-14u"
   },
   "Bdo OHiggins - Colón | Oriente": {
      "name": " Colón | Oriente",
      "latitude": -36.90207161,
      "longitude": -73.03007992,
      "services": "17a-18y-80l-81c"
   },
   "Bdo OHiggins - Colón | Poniente": {
      "name": " Colón | Poniente",
      "latitude": -36.90284789,
      "longitude": -73.03014974,
      "services": "17w-18p-80z-81s"
   },
   "Bdo OHiggins - El Maitén": {
      "name": " El Maitén",
      "latitude": -36.93453966,
      "longitude": -73.01295323,
      "services": "80l"
   },
   "Bdo OHiggins - El Nogal | Oriente": {
      "name": " El Nogal | Oriente",
      "latitude": -36.93332945,
      "longitude": -73.01388285,
      "services": "80z"
   },
   "Bdo OHiggins - El Nogal | Poniente": {
      "name": " El Nogal | Poniente",
      "latitude": -36.93328327,
      "longitude": -73.01381668,
      "services": "80l"
   },
   "Bdo OHiggins - El Peral": {
      "name": " El Peral",
      "latitude": -36.93076446,
      "longitude": -73.01626217,
      "services": "80l"
   },
   "Bdo OHiggins - Galvarino": {
      "name": " Galvarino",
      "latitude": -36.8224843,
      "longitude": -73.03762719,
      "services": "14u-17w-17x-18p-21b-22c-22d-22e-24m-30q-30r-31d-32e-32h-43t-56o-57p-62m-62n-70g-70h-70i-72j-72k-90x"
   },
   "Bdo OHiggins - Janequeo": {
      "name": " Janequeo",
      "latitude": -36.82355649,
      "longitude": -73.04033535,
      "services": "14u-17w-17x-18p-21b-22c-22d-22e-24m-30q-30r-31d-32e-32h-43t-56o-57p-62m-62n-70g-70h-70i-72j-72k-90x"
   },
   "Bdo OHiggins - La Plaza": {
      "name": " La Plaza",
      "latitude": -36.90823623,
      "longitude": -73.02951732,
      "services": "10b-12r-14z-17a-18y-80l-81c"
   },
   "Bdo OHiggins - Lincoyan": {
      "name": " Lincoyan",
      "latitude": -36.82899688,
      "longitude": -73.05328104,
      "services": "10l-10m-10n-10o-10p-11q-11r-14t-14u-16k-16v-24m-30q-30r"
   },
   "Bdo OHiggins - Lincoyán": {
      "name": " Lincoyán",
      "latitude": -36.82899688,
      "longitude": -73.05328104,
      "services": "13s-17w-17x-18p-21b-22c-22d-22e-31d-32e-32h-40g-42w-50s-56o-57p-57y-62m-62n-63i-70g-70h-70i-72j-72k-80h-80q-80z-90x-B02"
   },
   "Bdo OHiggins - Ongolmo": {
      "name": " Ongolmo",
      "latitude": -36.82450208,
      "longitude": -73.04247503,
      "services": "10k-10l-10m-10n-10o-10p-11q-11r-13s-14t-14u-16k-16v-17w-17x-18p-21b-22c-22d-22e-24m-30q-30r-31d-32e-32h-40g-42w-43t-50s-56o-57p-57y-62m-62n-70g-70h-70i-72j-72k-80h-80q-80z-90x-B02"
   },
   "Bdo OHiggins - Orompello": {
      "name": " Orompello",
      "latitude": -36.82506534,
      "longitude": -73.04383969,
      "services": "10k-10l-10m-10n-10o-10p-11q-11r-13s-14t-14u-16k-16v-17w-17x-18p-21b-22c-22d-22e-24m-30q-30r-31d-32e-32h-40g-42w-43t-50s-56o-57p-57y-62m-62n-70g-70h-70i-72j-72k-80h-80q-80z-90x-B02"
   },
   "Bdo OHiggins - Paicavi": {
      "name": " Paicavi",
      "latitude": -36.82407122,
      "longitude": -73.0414882,
      "services": "14u-24m-30q-30r"
   },
   "Bdo OHiggins - Paicaví": {
      "name": " Paicaví",
      "latitude": -36.82407122,
      "longitude": -73.0414882,
      "services": "17w-17x-18p-21b-22c-22d-22e-31d-32e-32h-43t-56o-57p-62m-62n-70g-70h-70i-72j-72k-90x"
   },
   "Bdo OHiggins - Pedro Villa": {
      "name": " Pedro Villa",
      "latitude": -36.82971004,
      "longitude": -73.05500085,
      "services": "10k-10l-10m-10n-10o-10p-11q-11r-13s-14t-14u-16k-16v-17w-17x-18p-21b-22c-22d-22e-24m-30q-30r-31d-32e-32h-40g-42f-42w-50u-56o-57p-57y-62m-62n-63i-70g-70h-70i-72j-72k-80h-80q-80z-90x-B02"
   },
   "Bdo OHiggins - Pinares | Oriente": {
      "name": " Pinares | Oriente",
      "latitude": -36.92947838,
      "longitude": -73.01750799,
      "services": "80l"
   },
   "Bdo OHiggins - Pinares | Poniente": {
      "name": " Pinares | Poniente",
      "latitude": -36.92948889,
      "longitude": -73.01759753,
      "services": "80z"
   },
   "Bdo OHiggins - Pje 6": {
      "name": " Pje 6",
      "latitude": -36.90464036,
      "longitude": -73.0300812,
      "services": "10o-12b-14u-17w-18p-80z-81s"
   },
   "Bdo OHiggins - Plaza De Concepción": {
      "name": " Plaza De Concepción",
      "latitude": -36.82723401,
      "longitude": -73.04911007,
      "services": "10l-10m-10n-10o-10p-11q-11r-13s-14t-14u-16k-16v-17w-17x-18p-21b-22c-22d-22e-24m-30q-30r-31d-32e-32h-40g-42w-50s-56o-57p-57y-62m-62n-70g-70h-70i-72j-72k-80h-80q-80z-90x-B02"
   },
   "Bdo OHiggins - Portales": {
      "name": " Portales",
      "latitude": -36.91484285,
      "longitude": -73.0289769,
      "services": "10o-12b-14u-17w-18p-80z-81s"
   },
   "Bdo OHiggins - San Martín": {
      "name": " San Martín",
      "latitude": -36.91854198,
      "longitude": -73.02649071,
      "services": "80l"
   },
   "Bdo OHiggins - Serrano": {
      "name": " Serrano",
      "latitude": -36.83087619,
      "longitude": -73.05741561,
      "services": "13s-17w-17x-30q-30r-31d-32e-32h-42f-50u-56o-57p-57y-62m-62n-70g-70h-70i-72j-72k-80h-90x-B02"
   },
   "Bdo OHiggins - Silva": {
      "name": " Silva",
      "latitude": -36.90966099,
      "longitude": -73.02955923,
      "services": "10o-12b-14u-17w-18p-80z-81s"
   },
   "Bdo OHiggins - Sta Justina | Oriente": {
      "name": " Sta Justina | Oriente",
      "latitude": -36.92726074,
      "longitude": -73.01964232,
      "services": "80l"
   },
   "Bdo OHiggins - Sta Justina | Poniente": {
      "name": " Sta Justina | Poniente",
      "latitude": -36.92741352,
      "longitude": -73.01961592,
      "services": "80z"
   },
   "Bdo OHiggins - Vilumilla": {
      "name": " Vilumilla",
      "latitude": -36.91234537,
      "longitude": -73.02946771,
      "services": "10o-12b-14u-17w-18p-80z-81s"
   },
   "Bdo. OHiggins - Rengo": {
      "name": " Rengo",
      "latitude": -36.82846204,
      "longitude": -73.051994,
      "services": "10l-10m-10n-10o-10p-11q-11r-13s-14t-14u-16k-16v-17w-17x-18p-21b-22c-22d-22e-24m-30q-30r-31d-32e-32h-40g-42w-50s-56o-57p-57y-62m-62n-63i-70g-70h-70i-72j-72k-80h-80q-80z-90x-B02"
   },
   "Belgica - Bristol": {
      "name": " Bristol",
      "latitude": -36.78293859,
      "longitude": -73.10966731,
      "services": "40b-41c-42f-42w"
   },
   "Belgica - Londres": {
      "name": " Londres",
      "latitude": -36.78297594,
      "longitude": -73.11031631,
      "services": "40p-41r"
   },
   "Bellavista": {
      "name": "",
      "latitude": -36.80235678,
      "longitude": -73.03102388,
      "services": "44u-62n-63f-63h-63k-65d-65e"
   },
   "Bellavista - Ainavillo": {
      "name": " Ainavillo",
      "latitude": -36.80265893,
      "longitude": -73.04880356,
      "services": "43t"
   },
   "Benjamin Subercaseaux - Luis Duran": {
      "name": " Luis Duran",
      "latitude": -36.89368844,
      "longitude": -73.13958267,
      "services": "22r"
   },
   "Benjamin Subercaseaux | Oriente": {
      "name": "",
      "latitude": -36.89483203,
      "longitude": -73.13204747,
      "services": "22r"
   },
   "Benjamin Subercasseaux - Edgard Garrido": {
      "name": " Edgard Garrido",
      "latitude": -36.89423828,
      "longitude": -73.13613545,
      "services": "22r"
   },
   "Bernardo Ohiggins 27": {
      "name": "",
      "latitude": -36.74125992,
      "longitude": -72.99885419,
      "services": "30b-30c-30d-31f-32g-32y-62h"
   },
   "Bilbao - Balmaceda": {
      "name": " Balmaceda",
      "latitude": -36.72434254,
      "longitude": -73.11364657,
      "services": "11r-12a-12b-81s"
   },
   "Bilbao - Beaucheff": {
      "name": " Beaucheff",
      "latitude": -36.72432288,
      "longitude": -73.11297524,
      "services": "10o-11f-12q-12r-81c"
   },
   "Bio Bio - Av 101": {
      "name": " Av 101",
      "latitude": -36.93965024,
      "longitude": -73.02647402,
      "services": "14h-14z"
   },
   "Bombero Ferret - Guacolda": {
      "name": " Guacolda",
      "latitude": -36.97076727,
      "longitude": -72.93351734,
      "services": "80h-80q-81c"
   },
   "Bombero Perret - Bio Bio | Norte": {
      "name": " Bio Bio | Norte",
      "latitude": -36.96677411,
      "longitude": -72.92574043,
      "services": "18y-80q-81c"
   },
   "Bombero Perret - Fresia": {
      "name": " Fresia",
      "latitude": -36.96919455,
      "longitude": -72.93015645,
      "services": "80h-81s"
   },
   "Bombero Perret - Gabriela Mistral": {
      "name": " Gabriela Mistral",
      "latitude": -36.96771457,
      "longitude": -72.92746712,
      "services": "80j-81s"
   },
   "Bombero Perret - Pje Estero Lircay": {
      "name": " Pje Estero Lircay",
      "latitude": -36.96729527,
      "longitude": -72.92668101,
      "services": "80j-81s"
   },
   "Bombero Perret - Pje Pablo Neruda": {
      "name": " Pje Pablo Neruda",
      "latitude": -36.96781955,
      "longitude": -72.92780124,
      "services": "18y-80q-81c"
   },
   "Bombero Perret - Río Bio Bio": {
      "name": " Río Bio Bio",
      "latitude": -36.96676196,
      "longitude": -72.92556104,
      "services": "80j-81s"
   },
   "Bombero Perret - Tegualda": {
      "name": " Tegualda",
      "latitude": -36.96824315,
      "longitude": -72.92831767,
      "services": "80h-81s"
   },
   "Bomberos De Chiguayante": {
      "name": "",
      "latitude": -36.91469919,
      "longitude": -73.02955305,
      "services": "10a-10c-10d-10j-10t-11e-11f-12q-13g-14h-16h-16i-17o-80h-80k"
   },
   "Bomberos | Los Carrera - Fresia": {
      "name": " Fresia",
      "latitude": -36.81582936,
      "longitude": -73.03361578,
      "services": "17a-22k-23n-23p-24f-30b-30c-30d-30e-31f-32g-32y-40b-57y-62h"
   },
   "Brasil - Castellón": {
      "name": " Castellón",
      "latitude": -36.81308954,
      "longitude": -73.05554487,
      "services": "63g-63h"
   },
   "Brasil - Colo Colo": {
      "name": " Colo Colo",
      "latitude": -36.81330186,
      "longitude": -73.05640265,
      "services": "90x"
   },
   "Brasil - Pedro Montt": {
      "name": " Pedro Montt",
      "latitude": -36.72218265,
      "longitude": -73.12583656,
      "services": "02d-02p-10n-10o-10p-14t-16k-16v-31f-32g-32y-57y-62h-62o-80h-80q-80z"
   },
   "Brasil - Talcahuano": {
      "name": " Talcahuano",
      "latitude": -36.7248532,
      "longitude": -73.12028511,
      "services": "02d-02p-10n-10o-10p-14t-16k-16v-31f-32g-32y-57y-62h-62o-80h-80q-80z"
   },
   "Bremen - Alemania": {
      "name": " Alemania",
      "latitude": -36.79299109,
      "longitude": -73.10473577,
      "services": "12b-40b-40g-71z"
   },
   "Bremen - Atenas | Norte": {
      "name": " Atenas | Norte",
      "latitude": -36.79491897,
      "longitude": -73.10072092,
      "services": "12r-30m-30n-40p-43t-71i"
   },
   "Bremen - Atenas | Sur": {
      "name": " Atenas | Sur",
      "latitude": -36.79504565,
      "longitude": -73.10075141,
      "services": "12b-30d-30e-40b-40g-43j-71z"
   },
   "Bremen - Bulgaria | Norte": {
      "name": " Bulgaria | Norte",
      "latitude": -36.792025,
      "longitude": -73.10632853,
      "services": "12r-40p-71i"
   },
   "Bremen - Bulgaria | Sur": {
      "name": " Bulgaria | Sur",
      "latitude": -36.79201215,
      "longitude": -73.10665384,
      "services": "12b-40b-40g-71z"
   },
   "Bremen - Frankfort | Norte": {
      "name": " Frankfort | Norte",
      "latitude": -36.79419352,
      "longitude": -73.10213972,
      "services": "12r-30m-30n-40p-43t-71i"
   },
   "Bremen - Frankfort | Sur": {
      "name": " Frankfort | Sur",
      "latitude": -36.79413671,
      "longitude": -73.10253337,
      "services": "12b-30d-30e-40b-40g-43j-71z"
   },
   "Bremen - Gran Bretana | Norte": {
      "name": " Gran Bretana | Norte",
      "latitude": -36.79191803,
      "longitude": -73.10810183,
      "services": "12r"
   },
   "Bremen - Gran Bretana | Sur": {
      "name": " Gran Bretana | Sur",
      "latitude": -36.79204506,
      "longitude": -73.10815474,
      "services": "12b"
   },
   "Bremen - Gran Bretaña | Norte": {
      "name": " Gran Bretaña | Norte",
      "latitude": -36.79191803,
      "longitude": -73.10810183,
      "services": "40p-71i"
   },
   "Bremen - Gran Bretaña | Sur": {
      "name": " Gran Bretaña | Sur",
      "latitude": -36.79204506,
      "longitude": -73.10815474,
      "services": "40b-40g-71z"
   },
   "Bremen - La Reconquista": {
      "name": " La Reconquista",
      "latitude": -36.79550509,
      "longitude": -73.09960813,
      "services": "12r-30m-30n-40p-43t-71i"
   },
   "Bremen - Palermo": {
      "name": " Palermo",
      "latitude": -36.79564888,
      "longitude": -73.09958216,
      "services": "12b-30d-30e-40b-40g-43j-71z"
   },
   "Bremen - Valencia": {
      "name": " Valencia",
      "latitude": -36.79250555,
      "longitude": -73.10537532,
      "services": "12r-40p-71i"
   },
   "Bulgaria - Finlandia": {
      "name": " Finlandia",
      "latitude": -36.78451838,
      "longitude": -73.10416012,
      "services": "30d-30e-40g-41q-43j-60l-71z"
   },
   "Bulgaria - Granada": {
      "name": " Granada",
      "latitude": -36.78807869,
      "longitude": -73.10416203,
      "services": "30d-30e-40b-40g-43j-71z"
   },
   "Bulgaria - Grecia | Oriente": {
      "name": " Grecia | Oriente",
      "latitude": -36.78639965,
      "longitude": -73.1040017,
      "services": "30m-30n-60x-71i"
   },
   "Bulgaria - Grecia | Poniente": {
      "name": " Grecia | Poniente",
      "latitude": -36.78651928,
      "longitude": -73.10415563,
      "services": "30d-30e-40g-41q-43j-60l-71z"
   },
   "Bulgaria - Paris": {
      "name": " Paris",
      "latitude": -36.78288743,
      "longitude": -73.1041891,
      "services": "30d-30e-40g-41q-43j-60l-71z"
   },
   "Bulgaria - Tres Pte": {
      "name": " Tres Pte",
      "latitude": -36.78800429,
      "longitude": -73.10401818,
      "services": "30m-30n-40p-43t-71i"
   },
   "C Al Puerto Lirquen - La Marina | Norte": {
      "name": " La Marina | Norte",
      "latitude": -36.72052787,
      "longitude": -72.98434472,
      "services": "62m"
   },
   "C Al Puerto Lirquen | Sur": {
      "name": "",
      "latitude": -36.72064688,
      "longitude": -72.98445357,
      "services": "17a-17w-62h"
   },
   "Caale 1 - Av La Araucana | Poniente": {
      "name": " Av La Araucana | Poniente",
      "latitude": -36.97298711,
      "longitude": -72.93315401,
      "services": "80j-80k-81c"
   },
   "Caleta Lenga | Hualpén": {
      "name": "",
      "latitude": -36.76697578,
      "longitude": -73.1654927,
      "services": "71i"
   },
   "Calle 1 - Av La Araucana": {
      "name": " Av La Araucana",
      "latitude": -36.97297478,
      "longitude": -72.93296338,
      "services": "18p-81s"
   },
   "Calle 1 - Calle 4": {
      "name": " Calle 4",
      "latitude": -36.95082333,
      "longitude": -73.01063233,
      "services": "80l"
   },
   "Calle 1 - Calle 5": {
      "name": " Calle 5",
      "latitude": -36.94983,
      "longitude": -73.00890633,
      "services": "80l"
   },
   "Calle 1 - Los Alerces - | Oriente": {
      "name": " Los Alerces | Oriente",
      "latitude": -36.96852175,
      "longitude": -72.93447665,
      "services": "18p-81s"
   },
   "Calle 1 - Los Naranjos": {
      "name": " Los Naranjos",
      "latitude": -36.96915862,
      "longitude": -72.93430218,
      "services": "80j-80k"
   },
   "Calle 1 - Los Olivos": {
      "name": " Los Olivos",
      "latitude": -36.96975243,
      "longitude": -72.9337245,
      "services": "18p-80h-80q-81s"
   },
   "Calle 1 - Pje 6 | Norte": {
      "name": " Pje 6 | Norte",
      "latitude": -36.94706648,
      "longitude": -73.00911304,
      "services": "80l"
   },
   "Calle 1 - Pje 8": {
      "name": " Pje 8",
      "latitude": -36.95054459,
      "longitude": -73.01013424,
      "services": "80z"
   },
   "Calle 1 - Pje 9": {
      "name": " Pje 9",
      "latitude": -36.95007965,
      "longitude": -73.00928165,
      "services": "80z"
   },
   "Calle 1 - Pje1 | Norte": {
      "name": " Pje1 | Norte",
      "latitude": -36.94671821,
      "longitude": -73.01091878,
      "services": "80l"
   },
   "Calle 1 - Pje6 | Sur": {
      "name": " Pje6 | Sur",
      "latitude": -36.9471577,
      "longitude": -73.00917804,
      "services": "80z"
   },
   "Calle 101 - Calle 102": {
      "name": " Calle 102",
      "latitude": -36.78121855,
      "longitude": -73.04180638,
      "services": "43j-44e-60k-60l"
   },
   "Calle 101 - Calle 105": {
      "name": " Calle 105",
      "latitude": -36.78213404,
      "longitude": -73.04211924,
      "services": "43j-44e-60k-60l"
   },
   "Calle 101 - Calle C": {
      "name": " Calle C",
      "latitude": -36.78047774,
      "longitude": -73.04170198,
      "services": "43t-44u-60y"
   },
   "Calle 101 - Condominio 1975": {
      "name": " Condominio 1975",
      "latitude": -36.78150245,
      "longitude": -73.04207928,
      "services": "43t-44u-60x-60y"
   },
   "Calle 2 - El Molino": {
      "name": " El Molino",
      "latitude": -36.95087535,
      "longitude": -73.01859295,
      "services": "10b-17w-17x"
   },
   "Calle 2 - Pje 4 | Norte": {
      "name": " Pje 4 | Norte",
      "latitude": -36.95636754,
      "longitude": -73.01770939,
      "services": "10a-10n-11e-11f-11q-11r"
   },
   "Calle 2 - Pje Cuatro | Sur": {
      "name": " Pje Cuatro | Sur",
      "latitude": -36.95644768,
      "longitude": -73.01765116,
      "services": "10j"
   },
   "Calle 201 - Manuel Rodriguez": {
      "name": " Manuel Rodriguez",
      "latitude": -36.95812409,
      "longitude": -73.01172268,
      "services": "12q-12r-13g-16h-16i"
   },
   "Calle 4 - Bergantian Ancud": {
      "name": " Bergantian Ancud",
      "latitude": -36.92753408,
      "longitude": -73.03337644,
      "services": "14h-14z"
   },
   "Calle 4 - Pje 11": {
      "name": " Pje 11",
      "latitude": -36.92737563,
      "longitude": -73.03360504,
      "services": "14t-14u"
   },
   "Calle 5 - Italia": {
      "name": " Italia",
      "latitude": -36.95410807,
      "longitude": -73.02003651,
      "services": "10j-11e-11f"
   },
   "Calle 5 - Los Andes": {
      "name": " Los Andes",
      "latitude": -36.95562502,
      "longitude": -73.01858217,
      "services": "10a-10n-11e-11q-11r"
   },
   "Calle 9 | Oriente": {
      "name": "",
      "latitude": -36.79596435,
      "longitude": -73.11430083,
      "services": "02p-60l-60y"
   },
   "Calle 9 | Poniente": {
      "name": "",
      "latitude": -36.79583222,
      "longitude": -73.11449459,
      "services": "02a-60k"
   },
   "Calle A - Calle D": {
      "name": " Calle D",
      "latitude": -36.92162496,
      "longitude": -73.03358439,
      "services": "14h-14z"
   },
   "Calle A - Calle Dos": {
      "name": " Calle Dos",
      "latitude": -36.81980841,
      "longitude": -72.98595836,
      "services": "18y"
   },
   "Calle A - Pje 9": {
      "name": " Pje 9",
      "latitude": -36.92139839,
      "longitude": -73.03133387,
      "services": "14h-14z"
   },
   "Calle C - Calle 101": {
      "name": " Calle 101",
      "latitude": -36.7806201,
      "longitude": -73.0426844,
      "services": "60x"
   },
   "Calle C - Calle C 542": {
      "name": " Calle C 542",
      "latitude": -36.78069336,
      "longitude": -73.0504364,
      "services": "60x-60y"
   },
   "Calle C - Calle Uno": {
      "name": " Calle Uno",
      "latitude": -36.78060584,
      "longitude": -73.05059549,
      "services": "60k-60l"
   },
   "Calle C - Camino Del Valle": {
      "name": " Camino Del Valle",
      "latitude": -36.78056041,
      "longitude": -73.04453474,
      "services": "60k"
   },
   "Calle C | Ermita | Norte": {
      "name": "",
      "latitude": -36.7803639,
      "longitude": -73.04793484,
      "services": "60k"
   },
   "Calle C | Ermita | Sur": {
      "name": "",
      "latitude": -36.78048139,
      "longitude": -73.04795427,
      "services": "60x"
   },
   "Calle C | Unimarc": {
      "name": "",
      "latitude": -36.7806562,
      "longitude": -73.04433061,
      "services": "60x"
   },
   "Calle Cinco - Calle Uno": {
      "name": " Calle Uno",
      "latitude": -36.82885554,
      "longitude": -73.01099289,
      "services": "24f-24t-56v"
   },
   "Calle Cinco - Quinta Agricola": {
      "name": " Quinta Agricola",
      "latitude": -36.8288546,
      "longitude": -73.01147503,
      "services": "24m-24r"
   },
   "Calle Cinco - Quinta Agrícola": {
      "name": " Quinta Agrícola",
      "latitude": -36.8288546,
      "longitude": -73.01147503,
      "services": "56o"
   },
   "Calle Cuatro - Calle Dos": {
      "name": " Calle Dos",
      "latitude": -36.82650339,
      "longitude": -73.01047079,
      "services": "24f-24t-56v"
   },
   "Calle Cuatro - Calle Sur | Norte": {
      "name": " Calle Sur | Norte",
      "latitude": -36.79503208,
      "longitude": -73.05145144,
      "services": "60x"
   },
   "Calle Cuatro - Calle Sur | Sur": {
      "name": " Calle Sur | Sur",
      "latitude": -36.79520657,
      "longitude": -73.05164875,
      "services": "60k"
   },
   "Calle Cuatro - Melchor Bravo De Saravia": {
      "name": " Melchor Bravo De Saravia",
      "latitude": -36.7942626,
      "longitude": -73.05565115,
      "services": "60x"
   },
   "Calle Cuatro - Padre Alonso De Ovalle": {
      "name": " Padre Alonso De Ovalle",
      "latitude": -36.79436115,
      "longitude": -73.05561504,
      "services": "60k"
   },
   "Calle Cuatro - Pje 21": {
      "name": " Pje 21",
      "latitude": -36.82621885,
      "longitude": -73.00908793,
      "services": "24f-24t-56v"
   },
   "Calle Cuatro | Norte": {
      "name": "",
      "latitude": -36.79499911,
      "longitude": -73.05329025,
      "services": "60x"
   },
   "Calle Cuatro | Sur": {
      "name": "",
      "latitude": -36.79506511,
      "longitude": -73.05346789,
      "services": "60k"
   },
   "Calle Del Cerro - Juna Guzman | Oriente": {
      "name": " Juna Guzman | Oriente",
      "latitude": -36.79395413,
      "longitude": -73.04234509,
      "services": "60m"
   },
   "Calle Del Cerro - Juna Guzman | Poniente": {
      "name": " Juna Guzman | Poniente",
      "latitude": -36.79395616,
      "longitude": -73.04246832,
      "services": "60z"
   },
   "Calle Dos": {
      "name": "",
      "latitude": -36.77521427,
      "longitude": -73.02265435,
      "services": "41v-57p-57y"
   },
   "Calle Dos - Pje Nueve": {
      "name": " Pje Nueve",
      "latitude": -36.82726974,
      "longitude": -73.01048458,
      "services": "24t-56v"
   },
   "Calle Dos - Pje Seis": {
      "name": " Pje Seis",
      "latitude": -36.82839908,
      "longitude": -73.01010776,
      "services": "24f-24m-24r-24t-56o-56v"
   },
   "Calle Dos - Rodriguez Aldea": {
      "name": " Rodriguez Aldea",
      "latitude": -36.83759332,
      "longitude": -73.14905001,
      "services": "20a-20j-20z-22k-22s-23a-23p"
   },
   "Calle E": {
      "name": "",
      "latitude": -36.83347662,
      "longitude": -73.11706918,
      "services": "21b"
   },
   "Calle Nueva": {
      "name": "",
      "latitude": -36.83928772,
      "longitude": -73.09823348,
      "services": "40n"
   },
   "Calle Nueve": {
      "name": "",
      "latitude": -36.77967107,
      "longitude": -73.04088215,
      "services": "43t-44u-60y"
   },
   "Calle Nueve - Cost": {
      "name": " Cost",
      "latitude": -36.77885339,
      "longitude": -73.04048839,
      "services": "43j-44e-60l"
   },
   "Calle Nueve 2152": {
      "name": "",
      "latitude": -36.77984336,
      "longitude": -73.04094499,
      "services": "43j-44e-60l"
   },
   "Calle Nueve 2231": {
      "name": "",
      "latitude": -36.77892768,
      "longitude": -73.04062096,
      "services": "43t-44u-60y"
   },
   "Calle Seis": {
      "name": "",
      "latitude": -36.79323929,
      "longitude": -73.11410988,
      "services": "02p-60l"
   },
   "Calle Seis - Calle 9": {
      "name": " Calle 9",
      "latitude": -36.79405129,
      "longitude": -73.11472878,
      "services": "02p"
   },
   "Calle Siete - Pasaje Quince": {
      "name": " Pasaje Quince",
      "latitude": -36.79709666,
      "longitude": -73.11011507,
      "services": "41v"
   },
   "Calle Tres - Calle Dos": {
      "name": " Calle Dos",
      "latitude": -36.81517935,
      "longitude": -73.08042322,
      "services": "63k-63p"
   },
   "Calle Uno - Av Rulcahue": {
      "name": " Av Rulcahue",
      "latitude": -36.80242837,
      "longitude": -73.09741953,
      "services": "02p"
   },
   "Calle Uno - Calle Seis": {
      "name": " Calle Seis",
      "latitude": -36.77310549,
      "longitude": -73.07653213,
      "services": "B02"
   },
   "Calle Uno - Pje Dieciseis": {
      "name": " Pje Dieciseis",
      "latitude": -36.80458549,
      "longitude": -73.09929402,
      "services": "02a-65e"
   },
   "Calle Uno - Pje Doce": {
      "name": " Pje Doce",
      "latitude": -36.8036428,
      "longitude": -73.09839823,
      "services": "02p-65e"
   },
   "Calle Uno - Pje Pinto": {
      "name": " Pje Pinto",
      "latitude": -36.80262819,
      "longitude": -73.09751546,
      "services": "02a"
   },
   "Caludio Gay Ote - Mons Alarcon | Oriente": {
      "name": " Mons Alarcon | Oriente",
      "latitude": -36.75921864,
      "longitude": -73.08395869,
      "services": "16h"
   },
   "Camilo Henriquez - Andalien": {
      "name": " Andalien",
      "latitude": -36.80679709,
      "longitude": -73.03191894,
      "services": "44e-62o-63p-65q-65r"
   },
   "Camilo Henriquez - Bellavista": {
      "name": " Bellavista",
      "latitude": -36.8017581,
      "longitude": -73.02970545,
      "services": "44e-62o-63f-63p-65q-65r"
   },
   "Camilo Henriquez - Calle Int": {
      "name": " Calle Int",
      "latitude": -36.80709114,
      "longitude": -73.03225888,
      "services": "44u-62n-63h-63k-65d-65e"
   },
   "Camilo Henriquez - David Quiroga": {
      "name": " David Quiroga",
      "latitude": -36.71316233,
      "longitude": -72.97574909,
      "services": "30m-30n-30q-30r-31d-32e-32h-62h"
   },
   "Camilo Henriquez - Libertad": {
      "name": " Libertad",
      "latitude": -36.80516734,
      "longitude": -73.03092948,
      "services": "44e-62o-63p-65q-65r"
   },
   "Camilo Henriquez - Pasaje Los Rosales": {
      "name": " Pasaje Los Rosales",
      "latitude": -36.84626875,
      "longitude": -73.14125966,
      "services": "23p"
   },
   "Camilo Henriquez - Pedro Aguirre Cerda": {
      "name": " Pedro Aguirre Cerda",
      "latitude": -36.71283203,
      "longitude": -72.97434719,
      "services": "30m-30n-30q-30r"
   },
   "Camilo Henriquez - Senda Uno | Oriente": {
      "name": " Senda Uno | Oriente",
      "latitude": -36.80357399,
      "longitude": -73.02996154,
      "services": "44e-62o-63f-63p-65q-65r"
   },
   "Camilo Henriquez - Senda Uno | Poniente": {
      "name": " Senda Uno | Poniente",
      "latitude": -36.80342195,
      "longitude": -73.03003268,
      "services": "44u-62n-63h-63k-65d-65e"
   },
   "Camilo Henriquez - Sta Sofia": {
      "name": " Sta Sofia",
      "latitude": -36.80425991,
      "longitude": -73.03056042,
      "services": "44u-62n-63h-63k-65d-65e"
   },
   "Camilo Henriquez 43": {
      "name": "",
      "latitude": -36.71310739,
      "longitude": -72.97675809,
      "services": "30b-30c-30d-30e-31f-32g-32y"
   },
   "Camilo Henríquez - Baquedano": {
      "name": " Baquedano",
      "latitude": -36.81064694,
      "longitude": -73.03526164,
      "services": "43j-44e-62o-63f-63p-65r"
   },
   "Camilo Henríquez - Diego De Oro": {
      "name": " Diego De Oro",
      "latitude": -36.80969478,
      "longitude": -73.03436682,
      "services": "43j-44e-62o-63h-63p-65r"
   },
   "Camilo Henríquez - Fioretti": {
      "name": " Fioretti",
      "latitude": -36.812664,
      "longitude": -73.0373287,
      "services": "44u-63h-63k-65e"
   },
   "Camilo Henríquez - Pedro Aguirre Cerda": {
      "name": " Pedro Aguirre Cerda",
      "latitude": -36.71283203,
      "longitude": -72.97434719,
      "services": "31d-32e-32h-62h"
   },
   "Camilo Henríquez - Pelantaro": {
      "name": " Pelantaro",
      "latitude": -36.81397897,
      "longitude": -73.03890933,
      "services": "44u-63h-63k-65e"
   },
   "Camino A La Cabaña": {
      "name": "",
      "latitude": -36.83896597,
      "longitude": -73.00870137,
      "services": "71i-71z"
   },
   "Camino A Penco - Calle Cuatro": {
      "name": " Calle Cuatro",
      "latitude": -36.79985662,
      "longitude": -73.02592112,
      "services": "17w-30m-30n-30q-30r-31d-32e-32h-57p-62m"
   },
   "Camino A Penco - Calle Dos | Oriente": {
      "name": " Calle Dos | Oriente",
      "latitude": -36.79164869,
      "longitude": -73.02502236,
      "services": "17a-30b-30c-30d-30e-31f-32g-32y-57y-62h"
   },
   "Camino A Penco - Calle Dos | Poniente": {
      "name": " Calle Dos | Poniente",
      "latitude": -36.79176219,
      "longitude": -73.02534443,
      "services": "17w-30m-30n-30q-30r-31d-32e-32h-57p-62m"
   },
   "Camino A Penco - Calle Ocho": {
      "name": " Calle Ocho",
      "latitude": -36.79411189,
      "longitude": -73.02572117,
      "services": "17w-30m-30n-30q-30r-31d-32e-32h-57p-62m"
   },
   "Camino A Penco - Los Naranjos | Oriente": {
      "name": " Los Naranjos | Oriente",
      "latitude": -36.78786293,
      "longitude": -73.02338263,
      "services": "17a-30b-30c-30d-30e-31f-32g-32y-57y-62h"
   },
   "Camino A Penco - Los Naranjos | Poniente": {
      "name": " Los Naranjos | Poniente",
      "latitude": -36.78786814,
      "longitude": -73.02369626,
      "services": "17w-30m-30n-30q-30r-31d-32e-32h-57p-62m"
   },
   "Camino A Penco | Oriente": {
      "name": "",
      "latitude": -36.80445945,
      "longitude": -73.02465967,
      "services": "17a-30b-30c-30d-30e-31f-32g-32y-57y-62h"
   },
   "Camino A Penco | Poniente": {
      "name": "",
      "latitude": -36.79695486,
      "longitude": -73.02595078,
      "services": "17w-30m-30n-30q-30r-31d-32e-32h-57p-62m"
   },
   "Camino A Tumbes - Los Araucanos": {
      "name": " Los Araucanos",
      "latitude": -36.71410436,
      "longitude": -73.12626797,
      "services": "02d-02p-10k-10p-70f-70j-70k"
   },
   "Camino A Tumbes - Rosa Linares": {
      "name": " Rosa Linares",
      "latitude": -36.71079524,
      "longitude": -73.12562068,
      "services": "02a-02k-10c-70g-70h-70i"
   },
   "Camino Al Litral - Bahia Inglesa": {
      "name": " Bahia Inglesa",
      "latitude": -36.71035027,
      "longitude": -73.13977069,
      "services": "02a-10a-10j-70i"
   },
   "Camino Al Litral - San Vicente": {
      "name": " San Vicente",
      "latitude": -36.71189458,
      "longitude": -73.1382333,
      "services": "02d-10l-10n-70f"
   },
   "Camino Nueva Los Lobos - Calle Uno | Oriente": {
      "name": " Calle Uno | Oriente",
      "latitude": -36.70939548,
      "longitude": -73.12946091,
      "services": "02d-02p-10l-70f-70j-70k"
   },
   "Camino Nueva Los Lobos - Calle Uno | Poniente": {
      "name": " Calle Uno | Poniente",
      "latitude": -36.7095352,
      "longitude": -73.12974859,
      "services": "02a-02k-10j-70g-70h-70i"
   },
   "Camino Nuevo Los Lobos - Camino A Tumbes": {
      "name": " Camino A Tumbes",
      "latitude": -36.71041734,
      "longitude": -73.12566344,
      "services": "02d-02p-10l-70f-70j-70k"
   },
   "Camino Viejo - Tolten": {
      "name": " Tolten",
      "latitude": -36.73221922,
      "longitude": -72.98867493,
      "services": "30b-30c-30d-30e-31f-32g-32y"
   },
   "Camino Viejo - V Ortaly | Oriente": {
      "name": " V Ortaly | Oriente",
      "latitude": -36.72740142,
      "longitude": -72.98679634,
      "services": "30b-30c-30d-31f-32g-32y"
   },
   "Camino Viejo - V Ortaly | Poniente": {
      "name": " V Ortaly | Poniente",
      "latitude": -36.72735826,
      "longitude": -72.98690944,
      "services": "30m-30n-30q-30r-31d-32e-32h"
   },
   "Camino Viejo 176": {
      "name": "",
      "latitude": -36.73108712,
      "longitude": -72.98781985,
      "services": "30b-30c-30d-30e-31f-32g-32y"
   },
   "Campos Deportivos - Andalien": {
      "name": " Andalien",
      "latitude": -36.79243223,
      "longitude": -73.03695978,
      "services": "44u-65d-65e"
   },
   "Candelaria - Las Tortolas": {
      "name": " Las Tortolas",
      "latitude": -36.83407108,
      "longitude": -73.11931962,
      "services": "21q"
   },
   "Candelaria - Los Choroyes": {
      "name": " Los Choroyes",
      "latitude": -36.83390869,
      "longitude": -73.11874053,
      "services": "21b"
   },
   "Candelaria - Los Pidenes": {
      "name": " Los Pidenes",
      "latitude": -36.83392911,
      "longitude": -73.11775329,
      "services": "21q"
   },
   "Canete - Chaiten": {
      "name": " Chaiten",
      "latitude": -36.79474402,
      "longitude": -73.08811719,
      "services": "30m-30n"
   },
   "Canete - Coihaique": {
      "name": " Coihaique",
      "latitude": -36.79487087,
      "longitude": -73.08759851,
      "services": "30d-30e"
   },
   "Canete - Quemchi | Norte": {
      "name": " Quemchi | Norte",
      "latitude": -36.79476408,
      "longitude": -73.09273404,
      "services": "30m-30n"
   },
   "Canete - Quemchi | Sur": {
      "name": " Quemchi | Sur",
      "latitude": -36.79489671,
      "longitude": -73.09257385,
      "services": "30d-30e"
   },
   "Cantabria | Norte": {
      "name": "",
      "latitude": -36.78547428,
      "longitude": -73.04518304,
      "services": "60y"
   },
   "Cantabria | Sur": {
      "name": "",
      "latitude": -36.78553367,
      "longitude": -73.04495741,
      "services": "60l"
   },
   "Carampangue - Chaiten": {
      "name": " Chaiten",
      "latitude": -36.79274025,
      "longitude": -73.08850321,
      "services": "40b"
   },
   "Carampangue - Chonchi": {
      "name": " Chonchi",
      "latitude": -36.79265069,
      "longitude": -73.08909939,
      "services": "40p"
   },
   "Carampangue - Corral": {
      "name": " Corral",
      "latitude": -36.79292805,
      "longitude": -73.09346319,
      "services": "40b-40g"
   },
   "Carampangue - Pto Octay": {
      "name": " Pto Octay",
      "latitude": -36.79275658,
      "longitude": -73.091764,
      "services": "40b-40g"
   },
   "Carampangue - Quemchi": {
      "name": " Quemchi",
      "latitude": -36.79266232,
      "longitude": -73.09206892,
      "services": "40p"
   },
   "Carlos Dittborn - El Romerillo": {
      "name": " El Romerillo",
      "latitude": -36.74523914,
      "longitude": -73.09970632,
      "services": "11f-30q-30r-50u-57p"
   },
   "Carlos Dittborn - Las Azaleas | Oriente": {
      "name": " Las Azaleas | Oriente",
      "latitude": -36.74773426,
      "longitude": -73.10017119,
      "services": "11f-30q-30r-50u-57p"
   },
   "Carlos Dittborn - Las Azaleas | Poniente": {
      "name": " Las Azaleas | Poniente",
      "latitude": -36.74761892,
      "longitude": -73.10028604,
      "services": "11r-30b-30c-50s-57y"
   },
   "Carlos Dittborn - Pasaje Dos": {
      "name": " Pasaje Dos",
      "latitude": -36.74538437,
      "longitude": -73.09976994,
      "services": "11r-30b-30c-50s-57y"
   },
   "Carriel Sur - Montriou": {
      "name": " Montriou",
      "latitude": -36.80494139,
      "longitude": -73.04509164,
      "services": "62n"
   },
   "Caupolicán - Colo Colo": {
      "name": " Colo Colo",
      "latitude": -36.96166795,
      "longitude": -72.93476296,
      "services": "18p-81c-81s"
   },
   "Caupolicán - Lautaro": {
      "name": " Lautaro",
      "latitude": -36.96278815,
      "longitude": -72.93491239,
      "services": "18p-81c-81s"
   },
   "Caupolicán - Manuel Rodríguez": {
      "name": " Manuel Rodríguez",
      "latitude": -36.81787939,
      "longitude": -73.05688103,
      "services": "63g-63h"
   },
   "Cañete - Chaiten": {
      "name": " Chaiten",
      "latitude": -36.79474402,
      "longitude": -73.08811719,
      "services": "43t"
   },
   "Cañete - Coihaique": {
      "name": " Coihaique",
      "latitude": -36.79487087,
      "longitude": -73.08759851,
      "services": "43j"
   },
   "Cañete - Quemchi | Norte": {
      "name": " Quemchi | Norte",
      "latitude": -36.79476408,
      "longitude": -73.09273404,
      "services": "43t"
   },
   "Cañete - Quemchi | Sur": {
      "name": " Quemchi | Sur",
      "latitude": -36.79489671,
      "longitude": -73.09257385,
      "services": "43j"
   },
   "Cementerio": {
      "name": "",
      "latitude": -36.73056389,
      "longitude": -72.98353363,
      "services": "30e"
   },
   "Cementerio - Ateuco | Norte": {
      "name": " Ateuco | Norte",
      "latitude": -36.966541,
      "longitude": -72.93511425,
      "services": "18p-81c-81s"
   },
   "Cementerio - Ateuco | Sur": {
      "name": " Ateuco | Sur",
      "latitude": -36.96668514,
      "longitude": -72.93511036,
      "services": "18p-81c-81s"
   },
   "Cementerio - El Aguila": {
      "name": " El Aguila",
      "latitude": -36.96657071,
      "longitude": -72.93630404,
      "services": "18p-81c-81s"
   },
   "Cementerio Parque San Pedro": {
      "name": "",
      "latitude": -36.86993811,
      "longitude": -73.13610916,
      "services": "22r"
   },
   "Central": {
      "name": "",
      "latitude": -36.7307135,
      "longitude": -72.99131207,
      "services": "17a-62h"
   },
   "Central - Av Las Torres": {
      "name": " Av Las Torres",
      "latitude": -36.85299188,
      "longitude": -73.13775454,
      "services": "20w-22o-23a-23q-23t"
   },
   "Central - Aviacion | Norte": {
      "name": " Aviacion | Norte",
      "latitude": -36.82670457,
      "longitude": -73.12371565,
      "services": "24m-24r"
   },
   "Central - Aviacion | Sur": {
      "name": " Aviacion | Sur",
      "latitude": -36.82680421,
      "longitude": -73.12374685,
      "services": "24f-24t"
   },
   "Central - Aviación | Norte": {
      "name": " Aviación | Norte",
      "latitude": -36.82670457,
      "longitude": -73.12371565,
      "services": "22e-23q"
   },
   "Central - Aviación | Sur": {
      "name": " Aviación | Sur",
      "latitude": -36.82680421,
      "longitude": -73.12374685,
      "services": "22x-23a-40g-40n"
   },
   "Central - Calle C": {
      "name": " Calle C",
      "latitude": -36.85080979,
      "longitude": -73.14808083,
      "services": "22j-23n"
   },
   "Central - Calle C | Oriente": {
      "name": " Calle C | Oriente",
      "latitude": -36.85070876,
      "longitude": -73.14795989,
      "services": "20w-22o-23t"
   },
   "Central - Carabinero | Norte": {
      "name": " Carabinero | Norte",
      "latitude": -36.82527468,
      "longitude": -73.12734952,
      "services": "22e-24m-24r"
   },
   "Central - Carabinero | Sur": {
      "name": " Carabinero | Sur",
      "latitude": -36.82535612,
      "longitude": -73.12736996,
      "services": "22x-24f-24t"
   },
   "Central - Carlos Condell | Norte": {
      "name": " Carlos Condell | Norte",
      "latitude": -36.82724936,
      "longitude": -73.122256,
      "services": "22e-23q-24m-24r"
   },
   "Central - Carlos Condell | Sur": {
      "name": " Carlos Condell | Sur",
      "latitude": -36.82734882,
      "longitude": -73.12227599,
      "services": "22x-23a-24f-24t-40n"
   },
   "Central - Costanera": {
      "name": " Costanera",
      "latitude": -36.82491533,
      "longitude": -73.12856913,
      "services": "22x-24f-24t"
   },
   "Central - Diagonal Biobio | Sur": {
      "name": " Diagonal Biobio | Sur",
      "latitude": -36.82807837,
      "longitude": -73.1205315,
      "services": "22x-23a-24f-24t-40n"
   },
   "Central - Ejercito | Norte": {
      "name": " Ejercito | Norte",
      "latitude": -36.82598505,
      "longitude": -73.12552711,
      "services": "22e-23q-24m-24r"
   },
   "Central - Ejercito | Sur": {
      "name": " Ejercito | Sur",
      "latitude": -36.8261027,
      "longitude": -73.12555787,
      "services": "22x-23a-24f-24t-40n"
   },
   "Central - El Faro | Oriente": {
      "name": " El Faro | Oriente",
      "latitude": -36.72484852,
      "longitude": -72.99040118,
      "services": "17a-62h"
   },
   "Central - El Faro | Poniente": {
      "name": " El Faro | Poniente",
      "latitude": -36.72479616,
      "longitude": -72.99050332,
      "services": "62m"
   },
   "Central - Galvarino": {
      "name": " Galvarino",
      "latitude": -36.94567572,
      "longitude": -73.02351127,
      "services": "14u"
   },
   "Central - La Marina | Norte": {
      "name": " La Marina | Norte",
      "latitude": -36.82763851,
      "longitude": -73.12121498,
      "services": "22e-23q-24m-24r"
   },
   "Central - La Marina | Sur": {
      "name": " La Marina | Sur",
      "latitude": -36.82773038,
      "longitude": -73.12132486,
      "services": "22x-23a-24f-24t-40n"
   },
   "Central - Loncomilla": {
      "name": " Loncomilla",
      "latitude": -36.84915975,
      "longitude": -73.14804213,
      "services": "20w-22j-22o-23n-23t"
   },
   "Central - Los Boldos | Oriente": {
      "name": " Los Boldos | Oriente",
      "latitude": -36.84726871,
      "longitude": -73.14815505,
      "services": "20w-22o-23t"
   },
   "Central - Los Boldos | Poniente": {
      "name": " Los Boldos | Poniente",
      "latitude": -36.84727098,
      "longitude": -73.14830079,
      "services": "22j-23n"
   },
   "Central - Pasaje Ciento Doce | Oriente": {
      "name": " Pasaje Ciento Doce | Oriente",
      "latitude": -36.84607092,
      "longitude": -73.14821759,
      "services": "20w-22o-23t"
   },
   "Central - Pasaje Ciento Doce | Poniente": {
      "name": " Pasaje Ciento Doce | Poniente",
      "latitude": -36.84609121,
      "longitude": -73.14836289,
      "services": "22j-23n"
   },
   "Central - Pasaje Ciento Veintiuno | Oriente": {
      "name": " Pasaje Ciento Veintiuno | Oriente",
      "latitude": -36.84373909,
      "longitude": -73.14838598,
      "services": "20w-22o-23t"
   },
   "Central - Pasaje Ciento Veintiuno | Poniente": {
      "name": " Pasaje Ciento Veintiuno | Poniente",
      "latitude": -36.8438039,
      "longitude": -73.14849656,
      "services": "22j-23n"
   },
   "Central - Pasaje Sesenta Y Ocho": {
      "name": " Pasaje Sesenta Y Ocho",
      "latitude": -36.85213113,
      "longitude": -73.14669185,
      "services": "20w-22o-23t"
   },
   "Central - Pasaje Sesenta Y Siete": {
      "name": " Pasaje Sesenta Y Siete",
      "latitude": -36.85223994,
      "longitude": -73.14673409,
      "services": "22j-23n"
   },
   "Central - Pasaje Siete": {
      "name": " Pasaje Siete",
      "latitude": -36.85331549,
      "longitude": -73.1359746,
      "services": "22j-23n"
   },
   "Central - Pasaje Treinta Y Dos": {
      "name": " Pasaje Treinta Y Dos",
      "latitude": -36.85278742,
      "longitude": -73.14023818,
      "services": "20w-22o-23t"
   },
   "Central - Pasaje Veinticinco": {
      "name": " Pasaje Veinticinco",
      "latitude": -36.85291092,
      "longitude": -73.14006695,
      "services": "22j-23n"
   },
   "Central - Pasaje Veintiocho": {
      "name": " Pasaje Veintiocho",
      "latitude": -36.85306654,
      "longitude": -73.13849297,
      "services": "22j-23n"
   },
   "Central - Pje 5 | Oriente": {
      "name": " Pje 5 | Oriente",
      "latitude": -36.7244012,
      "longitude": -72.99006574,
      "services": "17a-62h"
   },
   "Central - Pje 5 | Poniente": {
      "name": " Pje 5 | Poniente",
      "latitude": -36.72434866,
      "longitude": -72.99015669,
      "services": "62m"
   },
   "Central - Pje 7 | Oriente": {
      "name": " Pje 7 | Oriente",
      "latitude": -36.72362558,
      "longitude": -72.98950374,
      "services": "17a-62h"
   },
   "Central - Pje 7 | Poniente": {
      "name": " Pje 7 | Poniente",
      "latitude": -36.72358204,
      "longitude": -72.98959445,
      "services": "62m"
   },
   "Central - Victor Orlaly | Oriente": {
      "name": " Victor Orlaly | Oriente",
      "latitude": -36.72626436,
      "longitude": -72.99098011,
      "services": "17a-62h"
   },
   "Central - Victor Orlaly | Poniente": {
      "name": " Victor Orlaly | Poniente",
      "latitude": -36.72625724,
      "longitude": -72.99109227,
      "services": "62m"
   },
   "Central | Norte": {
      "name": "",
      "latitude": -36.72268317,
      "longitude": -72.98813995,
      "services": "62m"
   },
   "Central | Oriente": {
      "name": "",
      "latitude": -36.72699544,
      "longitude": -72.99103944,
      "services": "17a-62h"
   },
   "Central | Poniente": {
      "name": "",
      "latitude": -36.85265547,
      "longitude": -73.14159848,
      "services": "20w-22o-23t-62m"
   },
   "Central | Sur": {
      "name": "",
      "latitude": -36.72273647,
      "longitude": -72.98809378,
      "services": "17a-62h"
   },
   "Centro De Salud Familiar Hualpencillo": {
      "name": "",
      "latitude": -36.78313756,
      "longitude": -73.10404847,
      "services": "30m-30n-60x-71i"
   },
   "Centro Educativo Evangelico": {
      "name": "",
      "latitude": -36.78461548,
      "longitude": -73.0983868,
      "services": "12q-42f-42h-44e"
   },
   "Cesafam Villa Nonguén | Oriente": {
      "name": "",
      "latitude": -36.83090453,
      "longitude": -73.0057934,
      "services": "17x-22d-22n-23l-40p-70g-70h-70i-71i-72j"
   },
   "Cesfam Costanera": {
      "name": "",
      "latitude": -36.82861596,
      "longitude": -73.06749634,
      "services": "65d-65q"
   },
   "Cesfam Villa Nonguén | Poniente": {
      "name": "",
      "latitude": -36.83103386,
      "longitude": -73.00598065,
      "services": "17o-22k-22s-23p-40b-70f-70j-70k-71z-72w"
   },
   "Chacabuco - Anibal Pinto": {
      "name": " Anibal Pinto",
      "latitude": -36.83015966,
      "longitude": -73.0472418,
      "services": "63h"
   },
   "Chacabuco - Caupolicán": {
      "name": " Caupolicán",
      "latitude": -36.83101338,
      "longitude": -73.04873377,
      "services": "44e-63f-90y"
   },
   "Chacabuco - Colo Colo | Norte": {
      "name": " Colo Colo | Norte",
      "latitude": -36.82966208,
      "longitude": -73.04603233,
      "services": "63h"
   },
   "Chacabuco - Colo Colo | Sur": {
      "name": " Colo Colo | Sur",
      "latitude": -36.83000078,
      "longitude": -73.04634886,
      "services": "44e-63f-90y"
   },
   "Chacabuco - Lincoyán": {
      "name": " Lincoyán",
      "latitude": -36.83159385,
      "longitude": -73.05060271,
      "services": "63h"
   },
   "Chacabuco - Ongolmo | Norte": {
      "name": " Ongolmo | Norte",
      "latitude": -36.82757879,
      "longitude": -73.04102878,
      "services": "63h-90j"
   },
   "Chacabuco - Ongolmo | Sur": {
      "name": " Ongolmo | Sur",
      "latitude": -36.82787924,
      "longitude": -73.04121172,
      "services": "44e-63f-90y"
   },
   "Chacabuco - Orompello | Sur": {
      "name": " Orompello | Sur",
      "latitude": -36.8284142,
      "longitude": -73.04249866,
      "services": "44e-63f-90y"
   },
   "Chacabuco - Paicaví | Sur": {
      "name": " Paicaví | Sur",
      "latitude": -36.82736192,
      "longitude": -73.03990192,
      "services": "44e-63f-90y"
   },
   "Chacabuco - Trinitarias": {
      "name": " Trinitarias",
      "latitude": -36.83060942,
      "longitude": -73.04828432,
      "services": "63h"
   },
   "Chacabuco - Tucapel | Norte": {
      "name": " Tucapel | Norte",
      "latitude": -36.82856355,
      "longitude": -73.04335818,
      "services": "63h-90j"
   },
   "Chacabuco - Tucapel | Sur": {
      "name": " Tucapel | Sur",
      "latitude": -36.82893957,
      "longitude": -73.04375224,
      "services": "44e-63f-90y"
   },
   "Chiguayante": {
      "name": "",
      "latitude": -36.91519607,
      "longitude": -73.02908005,
      "services": "Linea 1"
   },
   "Chiguayante | Oriente": {
      "name": "",
      "latitude": -36.91560796,
      "longitude": -73.02837352,
      "services": "17a-18y-80l-81c"
   },
   "Chiguayante | Poniente": {
      "name": "",
      "latitude": -36.91586923,
      "longitude": -73.02836679,
      "services": "17w-18p-80z-81s"
   },
   "Chile - Argentina": {
      "name": " Argentina",
      "latitude": -36.96634136,
      "longitude": -72.93141309,
      "services": "18p-80q"
   },
   "Chile - Concepción | Oriente": {
      "name": " Concepción | Oriente",
      "latitude": -36.82538197,
      "longitude": -72.99469169,
      "services": "52a-70i"
   },
   "Chile - Concepción | Poniente": {
      "name": " Concepción | Poniente",
      "latitude": -36.8254107,
      "longitude": -72.99479184,
      "services": "18y-52d-70i"
   },
   "Chile - Gabriela Mistral": {
      "name": " Gabriela Mistral",
      "latitude": -36.96539684,
      "longitude": -72.92945062,
      "services": "18p-80q"
   },
   "Chile - Julio Diestre | Oriente": {
      "name": " Julio Diestre | Oriente",
      "latitude": -36.82708388,
      "longitude": -72.99406425,
      "services": "52a-70i"
   },